{
"type": "FeatureCollection",
"name": "country250_HDI_point",
"crs": { "type": "name", "properties": { "name": "urn:ogc:def:crs:OGC:1.3:CRS84" } },
"features": [
{ "type": "Feature", "properties": { "OID": 214, "st_Name_jp": "ブーベ島", "st_HDI_value": 0.0, "st_平均寿命": 0.0, "st_期待就学年数": 0.0, "st_平均就学年数": 0.0, "st_一人当たりGNI": 0.0, "st_HDI_rank": "0", "st_HDI_category": 0 }, "geometry": { "type": "Point", "coordinates": [ 3.39333325, -54.431881 ] } },
{ "type": "Feature", "properties": { "OID": 209, "st_Name_jp": "モナコ", "st_HDI_value": 0.0, "st_平均寿命": 0.0, "st_期待就学年数": 0.0, "st_平均就学年数": 0.0, "st_一人当たりGNI": 0.0, "st_HDI_rank": "0", "st_HDI_category": 0 }, "geometry": { "type": "Point", "coordinates": [ 7.414816600000043, 43.752350200000059 ] } },
{ "type": "Feature", "properties": { "OID": 208, "st_Name_jp": "マカオ", "st_HDI_value": 0.0, "st_平均寿命": 0.0, "st_期待就学年数": 0.0, "st_平均就学年数": 0.0, "st_一人当たりGNI": 0.0, "st_HDI_rank": "0", "st_HDI_category": 0 }, "geometry": { "type": "Point", "coordinates": [ 113.54255475, 22.196313500000038 ] } },
{ "type": "Feature", "properties": { "OID": 211, "st_Name_jp": "アランド諸島", "st_HDI_value": 0.0, "st_平均寿命": 0.0, "st_期待就学年数": 0.0, "st_平均就学年数": 0.0, "st_一人当たりGNI": 0.0, "st_HDI_rank": "0", "st_HDI_category": 0 }, "geometry": { "type": "Point", "coordinates": [ 20.084839523809567, 60.16123961904767 ] } },
{ "type": "Feature", "properties": { "OID": 210, "st_Name_jp": "マヨット", "st_HDI_value": 0.0, "st_平均寿命": 0.0, "st_期待就学年数": 0.0, "st_平均就学年数": 0.0, "st_一人当たりGNI": 0.0, "st_HDI_rank": "0", "st_HDI_category": 0 }, "geometry": { "type": "Point", "coordinates": [ 45.212113500000058, -12.809063375 ] } },
{ "type": "Feature", "properties": { "OID": 205, "st_Name_jp": "アンドラ", "st_HDI_value": 0.884, "st_平均寿命": 83.552, "st_期待就学年数": 12.7837801, "st_平均就学年数": 11.61343956, "st_一人当たりGNI": 54233.44948, "st_HDI_rank": "43", "st_HDI_category": 4 }, "geometry": { "type": "Point", "coordinates": [ 1.683221, 42.5628265 ] } },
{ "type": "Feature", "properties": { "OID": 204, "st_Name_jp": "フェロー諸島", "st_HDI_value": 0.0, "st_平均寿命": 0.0, "st_期待就学年数": 0.0, "st_平均就学年数": 0.0, "st_一人当たりGNI": 0.0, "st_HDI_rank": "0", "st_HDI_category": 0 }, "geometry": { "type": "Point", "coordinates": [ -6.743896067142487, 62.056348085403442 ] } },
{ "type": "Feature", "properties": { "OID": 207, "st_Name_jp": "マン島", "st_HDI_value": 0.0, "st_平均寿命": 0.0, "st_期待就学年数": 0.0, "st_平均就学年数": 0.0, "st_一人当たりGNI": 0.0, "st_HDI_rank": "0", "st_HDI_category": 0 }, "geometry": { "type": "Point", "coordinates": [ -4.57604225, 54.1770785 ] } },
{ "type": "Feature", "properties": { "OID": 206, "st_Name_jp": "ジブラルタル", "st_HDI_value": 0.0, "st_平均寿命": 0.0, "st_期待就学年数": 0.0, "st_平均就学年数": 0.0, "st_一人当たりGNI": 0.0, "st_HDI_rank": "0", "st_HDI_category": 0 }, "geometry": { "type": "Point", "coordinates": [ -5.34076125, 36.15015050000008 ] } },
{ "type": "Feature", "properties": { "OID": 201, "st_Name_jp": "アンギラ", "st_HDI_value": 0.0, "st_平均寿命": 0.0, "st_期待就学年数": 0.0, "st_平均就学年数": 0.0, "st_一人当たりGNI": 0.0, "st_HDI_rank": "0", "st_HDI_category": 0 }, "geometry": { "type": "Point", "coordinates": [ -63.0746535, 18.207082 ] } },
{ "type": "Feature", "properties": { "OID": 200, "st_Name_jp": "アルバ", "st_HDI_value": 0.0, "st_平均寿命": 0.0, "st_期待就学年数": 0.0, "st_平均就学年数": 0.0, "st_一人当たりGNI": 0.0, "st_HDI_rank": "0", "st_HDI_category": 0 }, "geometry": { "type": "Point", "coordinates": [ -69.97174475, 12.4972215 ] } },
{ "type": "Feature", "properties": { "OID": 203, "st_Name_jp": "北マリアナ諸島", "st_HDI_value": 0.0, "st_平均寿命": 0.0, "st_期待就学年数": 0.0, "st_平均就学年数": 0.0, "st_一人当たりGNI": 0.0, "st_HDI_rank": "0", "st_HDI_category": 0 }, "geometry": { "type": "Point", "coordinates": [ 145.562791730769305, 17.241503711538506 ] } },
{ "type": "Feature", "properties": { "OID": 202, "st_Name_jp": "香港", "st_HDI_value": 0.956, "st_平均寿命": 84.315, "st_期待就学年数": 17.8495903, "st_平均就学年数": 12.34776974, "st_一人当たりGNI": 62485.50516, "st_HDI_rank": "3", "st_HDI_category": 4 }, "geometry": { "type": "Point", "coordinates": [ 114.158538775495728, 22.329977905651312 ] } },
{ "type": "Feature", "properties": { "OID": 197, "st_Name_jp": "モーリシャス", "st_HDI_value": 0.796, "st_平均寿命": 73.975, "st_期待就学年数": 14.61009979, "st_平均就学年数": 9.992049863, "st_一人当たりGNI": 23251.62071, "st_HDI_rank": "72", "st_HDI_category": 3 }, "geometry": { "type": "Point", "coordinates": [ 59.162565333333383, -16.8170385 ] } },
{ "type": "Feature", "properties": { "OID": 196, "st_Name_jp": "モントセラト", "st_HDI_value": 0.0, "st_平均寿命": 0.0, "st_期待就学年数": 0.0, "st_平均就学年数": 0.0, "st_一人当たりGNI": 0.0, "st_HDI_rank": "0", "st_HDI_category": 0 }, "geometry": { "type": "Point", "coordinates": [ -62.19535225, 16.71708125 ] } },
{ "type": "Feature", "properties": { "OID": 199, "st_Name_jp": "ニウエ", "st_HDI_value": 0.0, "st_平均寿命": 0.0, "st_期待就学年数": 0.0, "st_平均就学年数": 0.0, "st_一人当たりGNI": 0.0, "st_HDI_rank": "0", "st_HDI_category": 0 }, "geometry": { "type": "Point", "coordinates": [ -169.884239, -19.0690275 ] } },
{ "type": "Feature", "properties": { "OID": 198, "st_Name_jp": "モルディブ", "st_HDI_value": 0.762, "st_平均寿命": 80.839, "st_期待就学年数": 12.17795095, "st_平均就学年数": 7.762392544, "st_一人当たりGNI": 18846.79219, "st_HDI_rank": "88", "st_HDI_category": 3 }, "geometry": { "type": "Point", "coordinates": [ 73.232225093283603, 3.375825507462709 ] } },
{ "type": "Feature", "properties": { "OID": 193, "st_Name_jp": "キリバス", "st_HDI_value": 0.628, "st_平均寿命": 67.661, "st_期待就学年数": 11.80302, "st_平均就学年数": 9.128581569, "st_一人当たりGNI": 3440.416745, "st_HDI_rank": "137", "st_HDI_category": 2 }, "geometry": { "type": "Point", "coordinates": [ 70.679405726190481, -1.125727833333322 ] } },
{ "type": "Feature", "properties": { "OID": 192, "st_Name_jp": "グアム", "st_HDI_value": 0.0, "st_平均寿命": 0.0, "st_期待就学年数": 0.0, "st_平均就学年数": 0.0, "st_一人当たりGNI": 0.0, "st_HDI_rank": "0", "st_HDI_category": 0 }, "geometry": { "type": "Point", "coordinates": [ 144.73732775, 13.387845 ] } },
{ "type": "Feature", "properties": { "OID": 195, "st_Name_jp": "マルティニーク", "st_HDI_value": 0.0, "st_平均寿命": 0.0, "st_期待就学年数": 0.0, "st_平均就学年数": 0.0, "st_一人当たりGNI": 0.0, "st_HDI_rank": "0", "st_HDI_category": 0 }, "geometry": { "type": "Point", "coordinates": [ -60.9593105, 14.60583275 ] } },
{ "type": "Feature", "properties": { "OID": 194, "st_Name_jp": "リヒテンシュタイン", "st_HDI_value": 0.942, "st_平均寿命": 84.656, "st_期待就学年数": 15.46640015, "st_平均就学年数": 12.351169, "st_一人当たりGNI": 146673.2415, "st_HDI_rank": "14", "st_HDI_category": 4 }, "geometry": { "type": "Point", "coordinates": [ 9.5351025, 47.167595 ] } },
{ "type": "Feature", "properties": { "OID": 189, "st_Name_jp": "ミクロネシア", "st_HDI_value": 0.634, "st_平均寿命": 70.925, "st_期待就学年数": 12.615048, "st_平均就学年数": 7.33252398, "st_一人当たりGNI": 3709.154916, "st_HDI_rank": "134", "st_HDI_category": 2 }, "geometry": { "type": "Point", "coordinates": [ 151.244819289473753, 7.305258342105302 ] } },
{ "type": "Feature", "properties": { "OID": 188, "st_Name_jp": "ドミニカ", "st_HDI_value": 0.74, "st_平均寿命": 72.981, "st_期待就学年数": 13.55048385, "st_平均就学年数": 9.1863441, "st_一人当たりGNI": 12467.85548, "st_HDI_rank": "97", "st_HDI_category": 3 }, "geometry": { "type": "Point", "coordinates": [ -61.35819825, 15.37236025 ] } },
{ "type": "Feature", "properties": { "OID": 191, "st_Name_jp": "グレナダ", "st_HDI_value": 0.793, "st_平均寿命": 75.335, "st_期待就学年数": 16.58226156, "st_平均就学年数": 9.85796464, "st_一人当たりGNI": 13593.24958, "st_HDI_rank": "73", "st_HDI_category": 3 }, "geometry": { "type": "Point", "coordinates": [ -61.570883333333313, 12.280531083333331 ] } },
{ "type": "Feature", "properties": { "OID": 190, "st_Name_jp": "フランス領ポリネシア", "st_HDI_value": 0.0, "st_平均寿命": 0.0, "st_期待就学年数": 0.0, "st_平均就学年数": 0.0, "st_一人当たりGNI": 0.0, "st_HDI_rank": "0", "st_HDI_category": 0 }, "geometry": { "type": "Point", "coordinates": [ -145.194375781250017, -17.169443234374999 ] } },
{ "type": "Feature", "properties": { "OID": 185, "st_Name_jp": "コモロ", "st_HDI_value": 0.586, "st_平均寿命": 63.68, "st_期待就学年数": 13.03771042, "st_平均就学年数": 6.209056832, "st_一人当たりGNI": 3260.555466, "st_HDI_rank": "151", "st_HDI_category": 2 }, "geometry": { "type": "Point", "coordinates": [ 43.843977583333391, -12.089028583333333 ] } },
{ "type": "Feature", "properties": { "OID": 184, "st_Name_jp": "ケイマン諸島", "st_HDI_value": 0.0, "st_平均寿命": 0.0, "st_期待就学年数": 0.0, "st_平均就学年数": 0.0, "st_一人当たりGNI": 0.0, "st_HDI_rank": "0", "st_HDI_category": 0 }, "geometry": { "type": "Point", "coordinates": [ -80.370539416666645, 19.565738583333356 ] } },
{ "type": "Feature", "properties": { "OID": 187, "st_Name_jp": "クック諸島", "st_HDI_value": 0.0, "st_平均寿命": 0.0, "st_期待就学年数": 0.0, "st_平均就学年数": 0.0, "st_一人当たりGNI": 0.0, "st_HDI_rank": "0", "st_HDI_category": 0 }, "geometry": { "type": "Point", "coordinates": [ -160.220993566666664, -16.092875966666654 ] } },
{ "type": "Feature", "properties": { "OID": 186, "st_Name_jp": "カーボベルデ", "st_HDI_value": 0.661, "st_平均寿命": 74.722, "st_期待就学年数": 11.53066323, "st_平均就学年数": 6.09003905, "st_一人当たりGNI": 7601.085433, "st_HDI_rank": "132", "st_HDI_category": 2 }, "geometry": { "type": "Point", "coordinates": [ -24.196737916666645, 16.077000958333354 ] } },
{ "type": "Feature", "properties": { "OID": 181, "st_Name_jp": "アメリカ領サモア", "st_HDI_value": 0.0, "st_平均寿命": 0.0, "st_期待就学年数": 0.0, "st_平均就学年数": 0.0, "st_一人当たりGNI": 0.0, "st_HDI_rank": "0", "st_HDI_category": 0 }, "geometry": { "type": "Point", "coordinates": [ -170.0013413, -14.24089015 ] } },
{ "type": "Feature", "properties": { "OID": 180, "st_Name_jp": "アンティグア・バーブーダ", "st_HDI_value": 0.826, "st_平均寿命": 79.236, "st_期待就学年数": 15.51232774, "st_平均就学年数": 10.54622968, "st_一人当たりGNI": 18783.96536, "st_HDI_rank": "54", "st_HDI_category": 4 }, "geometry": { "type": "Point", "coordinates": [ -61.779933874999969, 17.352705500000063 ] } },
{ "type": "Feature", "properties": { "OID": 183, "st_Name_jp": "バルバドス", "st_HDI_value": 0.809, "st_平均寿命": 77.706, "st_期待就学年数": 16.53069367, "st_平均就学年数": 9.89206168, "st_一人当たりGNI": 14810.23783, "st_HDI_rank": "63", "st_HDI_category": 4 }, "geometry": { "type": "Point", "coordinates": [ -59.5340995, 13.14937375 ] } },
{ "type": "Feature", "properties": { "OID": 182, "st_Name_jp": "バーレーン", "st_HDI_value": 0.888, "st_平均寿命": 79.246, "st_期待就学年数": 16.29968071, "st_平均就学年数": 11.04658985, "st_一人当たりGNI": 48731.44564, "st_HDI_rank": "34", "st_HDI_category": 4 }, "geometry": { "type": "Point", "coordinates": [ 50.718017333333371, 25.842486625000017 ] } },
{ "type": "Feature", "properties": { "OID": 177, "st_Name_jp": "南アフリカ", "st_HDI_value": 0.717, "st_平均寿命": 61.48, "st_期待就学年数": 14.26364994, "st_平均就学年数": 11.60696983, "st_一人当たりGNI": 13185.56419, "st_HDI_rank": "105", "st_HDI_category": 3 }, "geometry": { "type": "Point", "coordinates": [ 25.347076202127653, -28.736357191489372 ] } },
{ "type": "Feature", "properties": { "OID": 176, "st_Name_jp": "イエメン", "st_HDI_value": 0.424, "st_平均寿命": 63.72, "st_期待就学年数": 7.935313345, "st_平均就学年数": 2.776825958, "st_一人当たりGNI": 1105.763435, "st_HDI_rank": "186", "st_HDI_category": 1 }, "geometry": { "type": "Point", "coordinates": [ 46.496698795454556, 15.458507568181819 ] } },
{ "type": "Feature", "properties": { "OID": 179, "st_Name_jp": "ジンバブエ", "st_HDI_value": 0.55, "st_平均寿命": 59.391, "st_期待就学年数": 11.02558696, "st_平均就学年数": 8.807762621, "st_一人当たりGNI": 2078.918063, "st_HDI_rank": "159", "st_HDI_category": 2 }, "geometry": { "type": "Point", "coordinates": [ 29.658726567567566, -18.870223 ] } },
{ "type": "Feature", "properties": { "OID": 178, "st_Name_jp": "ザンビア", "st_HDI_value": 0.569, "st_平均寿命": 61.803, "st_期待就学年数": 11.01797045, "st_平均就学年数": 7.284893177, "st_一人当たりGNI": 3157.35862, "st_HDI_rank": "154", "st_HDI_category": 2 }, "geometry": { "type": "Point", "coordinates": [ 28.011100540983616, -12.849440540983606 ] } },
{ "type": "Feature", "properties": { "OID": 173, "st_Name_jp": "ベトナム", "st_HDI_value": 0.726, "st_平均寿命": 74.58, "st_期待就学年数": 13.05294705, "st_平均就学年数": 8.455348794000001, "st_一人当たりGNI": 10813.98273, "st_HDI_rank": "108", "st_HDI_category": 3 }, "geometry": { "type": "Point", "coordinates": [ 106.023182795454559, 16.956820613636367 ] } },
{ "type": "Feature", "properties": { "OID": 172, "st_Name_jp": "ベネズエラ", "st_HDI_value": 0.699, "st_平均寿命": 71.105, "st_期待就学年数": 13.50206427, "st_平均就学年数": 9.628154421, "st_一人当たりGNI": 6184.136, "st_HDI_rank": "120", "st_HDI_category": 2 }, "geometry": { "type": "Point", "coordinates": [ -66.966791902173952, 7.28496738043478 ] } },
{ "type": "Feature", "properties": { "OID": 175, "st_Name_jp": "パレスチナ", "st_HDI_value": 0.716, "st_平均寿命": 73.444, "st_期待就学年数": 13.15474033, "st_平均就学年数": 9.938480377, "st_一人当たりGNI": 6936.258684, "st_HDI_rank": "110", "st_HDI_category": 3 }, "geometry": { "type": "Point", "coordinates": [ 35.257391222222218, 31.909246888888887 ] } },
{ "type": "Feature", "properties": { "OID": 174, "st_Name_jp": "バヌアツ", "st_HDI_value": 0.614, "st_平均寿命": 70.492, "st_期待就学年数": 11.81160992, "st_平均就学年数": 7.183209727, "st_一人当たりGNI": 3243.980494, "st_HDI_rank": "141", "st_HDI_category": 2 }, "geometry": { "type": "Point", "coordinates": [ 167.180046416666642, -15.707736 ] } },
{ "type": "Feature", "properties": { "OID": 169, "st_Name_jp": "ウルグアイ", "st_HDI_value": 0.83, "st_平均寿命": 78.0, "st_期待就学年数": 17.35183907, "st_平均就学年数": 9.058219782, "st_一人当たりGNI": 22206.99029, "st_HDI_rank": "56", "st_HDI_category": 4 }, "geometry": { "type": "Point", "coordinates": [ -56.138627666666665, -32.697536333333332 ] } },
{ "type": "Feature", "properties": { "OID": 168, "st_Name_jp": "ウクライナ", "st_HDI_value": 0.734, "st_平均寿命": 68.564, "st_期待就学年数": 13.32800961, "st_平均就学年数": 11.12330123, "st_一人当たりGNI": 11416.2168, "st_HDI_rank": "86", "st_HDI_category": 3 }, "geometry": { "type": "Point", "coordinates": [ 30.651480020408147, 48.463926540816317 ] } },
{ "type": "Feature", "properties": { "OID": 171, "st_Name_jp": "ウズベキスタン", "st_HDI_value": 0.727, "st_平均寿命": 71.674, "st_期待就学年数": 11.99291039, "st_平均就学年数": 11.91114998, "st_一人当たりGNI": 8055.910265, "st_HDI_rank": "105", "st_HDI_category": 3 }, "geometry": { "type": "Point", "coordinates": [ 65.484604481481497, 41.079575351851865 ] } },
{ "type": "Feature", "properties": { "OID": 170, "st_Name_jp": "アメリカ合衆国", "st_HDI_value": 0.927, "st_平均寿命": 78.203, "st_期待就学年数": 16.41274071, "st_平均就学年数": 13.57549953, "st_一人当たりGNI": 65564.93798, "st_HDI_rank": "21", "st_HDI_category": 4 }, "geometry": { "type": "Point", "coordinates": [ -110.931298384066864, 40.994448091611901 ] } },
{ "type": "Feature", "properties": { "OID": 165, "st_Name_jp": "台湾", "st_HDI_value": 0.0, "st_平均寿命": 0.0, "st_期待就学年数": 0.0, "st_平均就学年数": 0.0, "st_一人当たりGNI": 0.0, "st_HDI_rank": "0", "st_HDI_category": 0 }, "geometry": { "type": "Point", "coordinates": [ 121.105065333333314, 23.861400666666668 ] } },
{ "type": "Feature", "properties": { "OID": 164, "st_Name_jp": "トルコ", "st_HDI_value": 0.855, "st_平均寿命": 78.475, "st_期待就学年数": 19.68494987, "st_平均就学年数": 8.811284129000001, "st_一人当たりGNI": 32833.53512, "st_HDI_rank": "48", "st_HDI_category": 4 }, "geometry": { "type": "Point", "coordinates": [ 34.635170552238804, 39.042402179104478 ] } },
{ "type": "Feature", "properties": { "OID": 167, "st_Name_jp": "ウガンダ", "st_HDI_value": 0.55, "st_平均寿命": 63.638, "st_期待就学年数": 11.49553237, "st_平均就学年数": 6.235476362, "st_一人当たりGNI": 2240.585404, "st_HDI_rank": "160", "st_HDI_category": 2 }, "geometry": { "type": "Point", "coordinates": [ 31.917150296296295, 1.255720666666666 ] } },
{ "type": "Feature", "properties": { "OID": 166, "st_Name_jp": "タンザニア", "st_HDI_value": 0.532, "st_平均寿命": 66.782, "st_期待就学年数": 8.585740089, "st_平均就学年数": 5.639967963, "st_一人当たりGNI": 2578.156006, "st_HDI_rank": "167", "st_HDI_category": 1 }, "geometry": { "type": "Point", "coordinates": [ 34.342976428571426, -6.514937469387752 ] } },
{ "type": "Feature", "properties": { "OID": 161, "st_Name_jp": "東ティモール", "st_HDI_value": 0.566, "st_平均寿命": 69.056, "st_期待就学年数": 13.24177562, "st_平均就学年数": 6.020059751, "st_一人当たりGNI": 1629.160441, "st_HDI_rank": "153", "st_HDI_category": 2 }, "geometry": { "type": "Point", "coordinates": [ 125.905543090909077, -8.745535818181819 ] } },
{ "type": "Feature", "properties": { "OID": 160, "st_Name_jp": "トルクメニスタン", "st_HDI_value": 0.744, "st_平均寿命": 69.41, "st_期待就学年数": 13.24057961, "st_平均就学年数": 11.14299353, "st_一人当たりGNI": 12859.87406, "st_HDI_rank": "93", "st_HDI_category": 3 }, "geometry": { "type": "Point", "coordinates": [ 58.618187481481492, 39.216473407407413 ] } },
{ "type": "Feature", "properties": { "OID": 163, "st_Name_jp": "チュニジア", "st_HDI_value": 0.732, "st_平均寿命": 74.263, "st_期待就学年数": 14.61953746, "st_平均就学年数": 7.953393173, "st_一人当たりGNI": 10296.6496, "st_HDI_rank": "101", "st_HDI_category": 3 }, "geometry": { "type": "Point", "coordinates": [ 9.841517870967742, 34.016760322580652 ] } },
{ "type": "Feature", "properties": { "OID": 162, "st_Name_jp": "トリニダード・トバゴ", "st_HDI_value": 0.814, "st_平均寿命": 74.708, "st_期待就学年数": 14.1010764, "st_平均就学年数": 11.73800258, "st_一人当たりGNI": 22473.03876, "st_HDI_rank": "60", "st_HDI_category": 4 }, "geometry": { "type": "Point", "coordinates": [ -61.459375, 10.47875 ] } },
{ "type": "Feature", "properties": { "OID": 157, "st_Name_jp": "トーゴ", "st_HDI_value": 0.547, "st_平均寿命": 61.588, "st_期待就学年数": 12.96236085, "st_平均就学年数": 5.590314011, "st_一人当たりGNI": 2214.233649, "st_HDI_rank": "160", "st_HDI_category": 1 }, "geometry": { "type": "Point", "coordinates": [ 0.920569631578947, 8.629217947368421 ] } },
{ "type": "Feature", "properties": { "OID": 156, "st_Name_jp": "チャド", "st_HDI_value": 0.394, "st_平均寿命": 52.997, "st_期待就学年数": 8.185526568, "st_平均就学年数": 2.282753488, "st_一人当たりGNI": 1388.897502, "st_HDI_rank": "189", "st_HDI_category": 1 }, "geometry": { "type": "Point", "coordinates": [ 17.834490034482762, 12.879854206896555 ] } },
{ "type": "Feature", "properties": { "OID": 159, "st_Name_jp": "タジキスタン", "st_HDI_value": 0.679, "st_平均寿命": 71.288, "st_期待就学年数": 10.86102637, "st_平均就学年数": 11.28955089, "st_一人当たりGNI": 4807.213923, "st_HDI_rank": "125", "st_HDI_category": 2 }, "geometry": { "type": "Point", "coordinates": [ 70.864843097560993, 38.58847302439024 ] } },
{ "type": "Feature", "properties": { "OID": 158, "st_Name_jp": "タイ", "st_HDI_value": 0.803, "st_平均寿命": 79.68, "st_期待就学年数": 15.58131027, "st_平均就学年数": 8.834560711, "st_一人当たりGNI": 16886.51113, "st_HDI_rank": "69", "st_HDI_category": 4 }, "geometry": { "type": "Point", "coordinates": [ 100.620356078124999, 13.14815975 ] } },
{ "type": "Feature", "properties": { "OID": 153, "st_Name_jp": "スウェーデン", "st_HDI_value": 0.952, "st_平均寿命": 83.505, "st_期待就学年数": 19.03676987, "st_平均就学年数": 12.67372015, "st_一人当たりGNI": 56995.84796, "st_HDI_rank": "5", "st_HDI_category": 4 }, "geometry": { "type": "Point", "coordinates": [ 16.710327532538031, 62.407963979590107 ] } },
{ "type": "Feature", "properties": { "OID": 152, "st_Name_jp": "スロベニア", "st_HDI_value": 0.926, "st_平均寿命": 82.133, "st_期待就学年数": 17.40657997, "st_平均就学年数": 12.88015724, "st_一人当たりGNI": 41586.89849, "st_HDI_rank": "24", "st_HDI_category": 4 }, "geometry": { "type": "Point", "coordinates": [ 14.995377888888889, 46.107082666666678 ] } },
{ "type": "Feature", "properties": { "OID": 155, "st_Name_jp": "シリア", "st_HDI_value": 0.557, "st_平均寿命": 72.3, "st_期待就学年数": 7.418754527, "st_平均就学年数": 5.736797587, "st_一人当たりGNI": 3594.10679, "st_HDI_rank": "157", "st_HDI_category": 2 }, "geometry": { "type": "Point", "coordinates": [ 38.06399174074074, 35.171003 ] } },
{ "type": "Feature", "properties": { "OID": 154, "st_Name_jp": "エスワティニ", "st_HDI_value": 0.61, "st_平均寿命": 56.36, "st_期待就学年数": 14.92692756, "st_平均就学年数": 5.73, "st_一人当たりGNI": 8391.855111000001, "st_HDI_rank": "142", "st_HDI_category": 2 }, "geometry": { "type": "Point", "coordinates": [ 31.437017818181815, -26.420252090909091 ] } },
{ "type": "Feature", "properties": { "OID": 149, "st_Name_jp": "セルビア", "st_HDI_value": 0.805, "st_平均寿命": 74.137, "st_期待就学年数": 14.50444031, "st_平均就学年数": 11.5047611, "st_一人当たりGNI": 19494.00891, "st_HDI_rank": "60", "st_HDI_category": 4 }, "geometry": { "type": "Point", "coordinates": [ 20.984143326086954, 43.819188 ] } },
{ "type": "Feature", "properties": { "OID": 148, "st_Name_jp": "ソマリア", "st_HDI_value": 0.38, "st_平均寿命": 56.107, "st_期待就学年数": 7.647232333, "st_平均就学年数": 1.900300026, "st_一人当たりGNI": 1072.201461, "st_HDI_rank": "..", "st_HDI_category": 1 }, "geometry": { "type": "Point", "coordinates": [ 47.06657952777779, 6.787068805555554 ] } },
{ "type": "Feature", "properties": { "OID": 151, "st_Name_jp": "スロバキア", "st_HDI_value": 0.855, "st_平均寿命": 75.33, "st_期待就学年数": 14.72154999, "st_平均就学年数": 13.00719575, "st_一人当たりGNI": 32171.24606, "st_HDI_rank": "45", "st_HDI_category": 4 }, "geometry": { "type": "Point", "coordinates": [ 19.239564909090909, 48.776279909090917 ] } },
{ "type": "Feature", "properties": { "OID": 150, "st_Name_jp": "スリナム", "st_HDI_value": 0.69, "st_平均寿命": 70.289, "st_期待就学年数": 10.95909977, "st_平均就学年数": 8.388631804, "st_一人当たりGNI": 12309.99659, "st_HDI_rank": "121", "st_HDI_category": 2 }, "geometry": { "type": "Point", "coordinates": [ -55.971260961538476, 3.838234576923077 ] } },
{ "type": "Feature", "properties": { "OID": 145, "st_Name_jp": "シエラレオネ", "st_HDI_value": 0.458, "st_平均寿命": 60.411, "st_期待就学年数": 9.016348244, "st_平均就学年数": 3.519426358, "st_一人当たりGNI": 1612.666542, "st_HDI_rank": "184", "st_HDI_category": 1 }, "geometry": { "type": "Point", "coordinates": [ -11.620067363636366, 8.507121409090908 ] } },
{ "type": "Feature", "properties": { "OID": 144, "st_Name_jp": "ソロモン諸島", "st_HDI_value": 0.562, "st_平均寿命": 70.742, "st_期待就学年数": 10.30071445, "st_平均就学年数": 5.8796802, "st_一人当たりGNI": 2273.311097, "st_HDI_rank": "155", "st_HDI_category": 2 }, "geometry": { "type": "Point", "coordinates": [ 159.84738743243247, -8.792477783783786 ] } },
{ "type": "Feature", "properties": { "OID": 147, "st_Name_jp": "ソマリランド", "st_HDI_value": 0.0, "st_平均寿命": 0.0, "st_期待就学年数": 0.0, "st_平均就学年数": 0.0, "st_一人当たりGNI": 0.0, "st_HDI_rank": "0", "st_HDI_category": 0 }, "geometry": { "type": "Point", "coordinates": [ 46.1354255, 10.31038275 ] } },
{ "type": "Feature", "properties": { "OID": 146, "st_Name_jp": "エルサルバドル", "st_HDI_value": 0.674, "st_平均寿命": 71.475, "st_期待就学年数": 11.9099355, "st_平均就学年数": 7.150929928, "st_一人当たりGNI": 8886.173528, "st_HDI_rank": "127", "st_HDI_category": 2 }, "geometry": { "type": "Point", "coordinates": [ -88.84191155, 13.80265265 ] } },
{ "type": "Feature", "properties": { "OID": 141, "st_Name_jp": "スーダン", "st_HDI_value": 0.516, "st_平均寿命": 65.578, "st_期待就学年数": 8.501687381, "st_平均就学年数": 3.87, "st_一人当たりGNI": 3514.765869, "st_HDI_rank": "169", "st_HDI_category": 1 }, "geometry": { "type": "Point", "coordinates": [ 29.458055481012668, 12.933765392405062 ] } },
{ "type": "Feature", "properties": { "OID": 140, "st_Name_jp": "サウジアラビア", "st_HDI_value": 0.875, "st_平均寿命": 77.905, "st_期待就学年数": 15.17204484, "st_平均就学年数": 11.31052971, "st_一人当たりGNI": 50620.43706, "st_HDI_rank": "37", "st_HDI_category": 4 }, "geometry": { "type": "Point", "coordinates": [ 43.696933052631586, 23.869037394736846 ] } },
{ "type": "Feature", "properties": { "OID": 143, "st_Name_jp": "セネガル", "st_HDI_value": 0.517, "st_平均寿命": 67.913, "st_期待就学年数": 9.144550323000001, "st_平均就学年数": 2.88736686, "st_一人当たりGNI": 3463.806076, "st_HDI_rank": "170", "st_HDI_category": 1 }, "geometry": { "type": "Point", "coordinates": [ -14.591478727272731, 13.877521909090911 ] } },
{ "type": "Feature", "properties": { "OID": 142, "st_Name_jp": "南スーダン", "st_HDI_value": 0.381, "st_平均寿命": 55.567, "st_期待就学年数": 5.634770141, "st_平均就学年数": 5.726140022, "st_一人当たりGNI": 690.6607575, "st_HDI_rank": "192", "st_HDI_category": 1 }, "geometry": { "type": "Point", "coordinates": [ 30.14223019047618, 8.1042980952381 ] } },
{ "type": "Feature", "properties": { "OID": 137, "st_Name_jp": "ロシア", "st_HDI_value": 0.821, "st_平均寿命": 70.116, "st_期待就学年数": 15.66174936, "st_平均就学年数": 12.41152954, "st_一人当たりGNI": 26991.84961, "st_HDI_rank": "55", "st_HDI_category": 4 }, "geometry": { "type": "Point", "coordinates": [ 78.352901317725667, 61.828267277591969 ] } },
{ "type": "Feature", "properties": { "OID": 136, "st_Name_jp": "ルーマニア", "st_HDI_value": 0.827, "st_平均寿命": 74.117, "st_期待就学年数": 14.50753021, "st_平均就学年数": 11.36019615, "st_一人当たりGNI": 31641.38368, "st_HDI_rank": "52", "st_HDI_category": 4 }, "geometry": { "type": "Point", "coordinates": [ 25.062760363636361, 45.911169 ] } },
{ "type": "Feature", "properties": { "OID": 139, "st_Name_jp": "西サハラ", "st_HDI_value": 0.0, "st_平均寿命": 0.0, "st_期待就学年数": 0.0, "st_平均就学年数": 0.0, "st_一人当たりGNI": 0.0, "st_HDI_rank": "0", "st_HDI_category": 0 }, "geometry": { "type": "Point", "coordinates": [ -12.032012928571429, 24.758574857142857 ] } },
{ "type": "Feature", "properties": { "OID": 138, "st_Name_jp": "ルワンダ", "st_HDI_value": 0.548, "st_平均寿命": 67.129, "st_期待就学年数": 11.38352013, "st_平均就学年数": 4.878310204, "st_一人当たりGNI": 2316.809277, "st_HDI_rank": "163", "st_HDI_category": 1 }, "geometry": { "type": "Point", "coordinates": [ 29.887922846153849, -1.975919615384615 ] } },
{ "type": "Feature", "properties": { "OID": 133, "st_Name_jp": "ポルトガル", "st_HDI_value": 0.874, "st_平均寿命": 82.24, "st_期待就学年数": 16.82140923, "st_平均就学年数": 9.575940132, "st_一人当たりGNI": 35314.99828, "st_HDI_rank": "39", "st_HDI_category": 4 }, "geometry": { "type": "Point", "coordinates": [ -8.038668363636363, 39.764078545454552 ] } },
{ "type": "Feature", "properties": { "OID": 132, "st_Name_jp": "北朝鮮", "st_HDI_value": 0.0, "st_平均寿命": 0.0, "st_期待就学年数": 0.0, "st_平均就学年数": 0.0, "st_一人当たりGNI": 0.0, "st_HDI_rank": "0", "st_HDI_category": 0 }, "geometry": { "type": "Point", "coordinates": [ 127.329093720930217, 39.885954651162784 ] } },
{ "type": "Feature", "properties": { "OID": 135, "st_Name_jp": "カタール", "st_HDI_value": 0.875, "st_平均寿命": 81.559, "st_期待就学年数": 13.26426983, "st_平均就学年数": 10.1317219, "st_一人当たりGNI": 95944.37754, "st_HDI_rank": "41", "st_HDI_category": 4 }, "geometry": { "type": "Point", "coordinates": [ 51.151304777777774, 25.257109333333332 ] } },
{ "type": "Feature", "properties": { "OID": 134, "st_Name_jp": "パラグアイ", "st_HDI_value": 0.731, "st_平均寿命": 70.475, "st_期待就学年数": 13.91056957, "st_平均就学年数": 8.861840248, "st_一人当たりGNI": 13161.07522, "st_HDI_rank": "99", "st_HDI_category": 3 }, "geometry": { "type": "Point", "coordinates": [ -57.706847151515156, -23.364773606060609 ] } },
{ "type": "Feature", "properties": { "OID": 129, "st_Name_jp": "パプアニューギニア", "st_HDI_value": 0.568, "st_平均寿命": 65.958, "st_期待就学年数": 11.12736798, "st_平均就学年数": 4.933631146, "st_一人当たりGNI": 3710.326885, "st_HDI_rank": "155", "st_HDI_category": 2 }, "geometry": { "type": "Point", "coordinates": [ 149.752956543209876, -6.219047790123455 ] } },
{ "type": "Feature", "properties": { "OID": 128, "st_Name_jp": "フィリピン", "st_HDI_value": 0.71, "st_平均寿命": 72.187, "st_期待就学年数": 12.78335953, "st_平均就学年数": 8.971409559, "st_一人当たりGNI": 9058.840558, "st_HDI_rank": "118", "st_HDI_category": 3 }, "geometry": { "type": "Point", "coordinates": [ 122.810318609090942, 11.503880936363636 ] } },
{ "type": "Feature", "properties": { "OID": 131, "st_Name_jp": "プエルトリコ", "st_HDI_value": 0.0, "st_平均寿命": 0.0, "st_期待就学年数": 0.0, "st_平均就学年数": 0.0, "st_一人当たりGNI": 0.0, "st_HDI_rank": "0", "st_HDI_category": 0 }, "geometry": { "type": "Point", "coordinates": [ -66.433504666666678, 18.275953444444443 ] } },
{ "type": "Feature", "properties": { "OID": 130, "st_Name_jp": "ポーランド", "st_HDI_value": 0.881, "st_平均寿命": 76.996, "st_期待就学年数": 15.93451977, "st_平均就学年数": 13.1647501, "st_一人当たりGNI": 35150.9519, "st_HDI_rank": "35", "st_HDI_category": 4 }, "geometry": { "type": "Point", "coordinates": [ 19.287538555555553, 51.68244833333334 ] } },
{ "type": "Feature", "properties": { "OID": 125, "st_Name_jp": "パキスタン", "st_HDI_value": 0.54, "st_平均寿命": 66.431, "st_期待就学年数": 7.89510849, "st_平均就学年数": 4.422319019, "st_一人当たりGNI": 5374.270423, "st_HDI_rank": "165", "st_HDI_category": 1 }, "geometry": { "type": "Point", "coordinates": [ 69.402966045454562, 30.815219424242422 ] } },
{ "type": "Feature", "properties": { "OID": 124, "st_Name_jp": "オマーン", "st_HDI_value": 0.819, "st_平均寿命": 73.935, "st_期待就学年数": 12.96403027, "st_平均就学年数": 11.89274979, "st_一人当たりGNI": 32967.43827, "st_HDI_rank": "58", "st_HDI_category": 4 }, "geometry": { "type": "Point", "coordinates": [ 56.613536489361678, 21.487954191489361 ] } },
{ "type": "Feature", "properties": { "OID": 127, "st_Name_jp": "ペルー", "st_HDI_value": 0.762, "st_平均寿命": 73.385, "st_期待就学年数": 14.80487907, "st_平均就学年数": 10.01696229, "st_一人当たりGNI": 11916.35952, "st_HDI_rank": "86", "st_HDI_category": 3 }, "geometry": { "type": "Point", "coordinates": [ -74.077795434210515, -7.927868828947368 ] } },
{ "type": "Feature", "properties": { "OID": 126, "st_Name_jp": "パナマ", "st_HDI_value": 0.82, "st_平均寿命": 76.826, "st_期待就学年数": 13.21381473, "st_平均就学年数": 10.68696295, "st_一人当たりGNI": 32029.36025, "st_HDI_rank": "57", "st_HDI_category": 4 }, "geometry": { "type": "Point", "coordinates": [ -80.327359807692318, 8.468009019230767 ] } },
{ "type": "Feature", "properties": { "OID": 121, "st_Name_jp": "ノルウェー", "st_HDI_value": 0.966, "st_平均寿命": 83.393, "st_期待就学年数": 18.63846016, "st_平均就学年数": 13.06234279, "st_一人当たりGNI": 69189.76165, "st_HDI_rank": "2", "st_HDI_category": 4 }, "geometry": { "type": "Point", "coordinates": [ 15.359897197298871, 67.488154288346948 ] } },
{ "type": "Feature", "properties": { "OID": 120, "st_Name_jp": "オランダ", "st_HDI_value": 0.946, "st_平均寿命": 82.451, "st_期待就学年数": 18.58348083, "st_平均就学年数": 12.58162975, "st_一人当たりGNI": 57278.31015, "st_HDI_rank": "11", "st_HDI_category": 4 }, "geometry": { "type": "Point", "coordinates": [ 5.585888357142857, 52.158606857142857 ] } },
{ "type": "Feature", "properties": { "OID": 123, "st_Name_jp": "ニュージーランド", "st_HDI_value": 0.939, "st_平均寿命": 83.006, "st_期待就学年数": 19.68234062, "st_平均就学年数": 12.94468975, "st_一人当たりGNI": 43665.49848, "st_HDI_rank": "14", "st_HDI_category": 4 }, "geometry": { "type": "Point", "coordinates": [ 173.451623227272762, -40.526198757575763 ] } },
{ "type": "Feature", "properties": { "OID": 122, "st_Name_jp": "ネパール", "st_HDI_value": 0.601, "st_平均寿命": 70.484, "st_期待就学年数": 12.64451981, "st_平均就学年数": 4.485598758, "st_一人当たりGNI": 4025.554685, "st_HDI_rank": "149", "st_HDI_category": 2 }, "geometry": { "type": "Point", "coordinates": [ 84.558653913043472, 28.209141304347828 ] } },
{ "type": "Feature", "properties": { "OID": 117, "st_Name_jp": "ニジェール", "st_HDI_value": 0.394, "st_平均寿命": 62.08, "st_期待就学年数": 7.186131428, "st_平均就学年数": 1.341352433, "st_一人当たりGNI": 1283.309235, "st_HDI_rank": "190", "st_HDI_category": 1 }, "geometry": { "type": "Point", "coordinates": [ 8.518535862068964, 15.289917586206894 ] } },
{ "type": "Feature", "properties": { "OID": 116, "st_Name_jp": "ニューカレドニア", "st_HDI_value": 0.0, "st_平均寿命": 0.0, "st_期待就学年数": 0.0, "st_平均就学年数": 0.0, "st_一人当たりGNI": 0.0, "st_HDI_rank": "0", "st_HDI_category": 0 }, "geometry": { "type": "Point", "coordinates": [ 165.511657846153867, -21.177657615384621 ] } },
{ "type": "Feature", "properties": { "OID": 119, "st_Name_jp": "ニカラグア", "st_HDI_value": 0.669, "st_平均寿命": 74.615, "st_期待就学年数": 12.58347787, "st_平均就学年数": 7.26, "st_一人当たりGNI": 5426.50618, "st_HDI_rank": "129", "st_HDI_category": 2 }, "geometry": { "type": "Point", "coordinates": [ -85.017470057692336, 13.081707730769235 ] } },
{ "type": "Feature", "properties": { "OID": 118, "st_Name_jp": "ナイジェリア", "st_HDI_value": 0.548, "st_平均寿命": 53.633, "st_期待就学年数": 10.51407, "st_平均就学年数": 7.585969925, "st_一人当たりGNI": 4754.836408, "st_HDI_rank": "162", "st_HDI_category": 1 }, "geometry": { "type": "Point", "coordinates": [ 8.448601482758617, 9.705913224137928 ] } },
{ "type": "Feature", "properties": { "OID": 113, "st_Name_jp": "マラウィ", "st_HDI_value": 0.508, "st_平均寿命": 62.898, "st_期待就学年数": 11.50487088, "st_平均就学年数": 5.243740082, "st_一人当たりGNI": 1432.472806, "st_HDI_rank": "172", "st_HDI_category": 1 }, "geometry": { "type": "Point", "coordinates": [ 34.126932464285709, -12.995803142857142 ] } },
{ "type": "Feature", "properties": { "OID": 112, "st_Name_jp": "モーリタニア", "st_HDI_value": 0.54, "st_平均寿命": 64.691, "st_期待就学年数": 8.051850319, "st_平均就学年数": 4.754063344, "st_一人当たりGNI": 5343.564069, "st_HDI_rank": "164", "st_HDI_category": 1 }, "geometry": { "type": "Point", "coordinates": [ -12.299476897435897, 18.667714615384618 ] } },
{ "type": "Feature", "properties": { "OID": 115, "st_Name_jp": "ナミビア", "st_HDI_value": 0.61, "st_平均寿命": 58.059, "st_期待就学年数": 11.75997928, "st_平均就学年数": 7.243458294, "st_一人当たりGNI": 9200.026599000001, "st_HDI_rank": "139", "st_HDI_category": 2 }, "geometry": { "type": "Point", "coordinates": [ 17.84777675, -21.647454477272728 ] } },
{ "type": "Feature", "properties": { "OID": 114, "st_Name_jp": "マレーシア", "st_HDI_value": 0.807, "st_平均寿命": 76.26, "st_期待就学年数": 12.93247032, "st_平均就学年数": 10.74828052, "st_一人当たりGNI": 27295.41224, "st_HDI_rank": "68", "st_HDI_category": 4 }, "geometry": { "type": "Point", "coordinates": [ 109.677693629032248, 3.951715419354838 ] } },
{ "type": "Feature", "properties": { "OID": 109, "st_Name_jp": "モンテネグロ", "st_HDI_value": 0.844, "st_平均寿命": 76.845, "st_期待就学年数": 15.08475971, "st_平均就学年数": 12.61621288, "st_一人当たりGNI": 22513.26314, "st_HDI_rank": "49", "st_HDI_category": 4 }, "geometry": { "type": "Point", "coordinates": [ 19.431629277777777, 42.736485722222227 ] } },
{ "type": "Feature", "properties": { "OID": 108, "st_Name_jp": "ミャンマー", "st_HDI_value": 0.608, "st_平均寿命": 67.256, "st_期待就学年数": 12.06090998, "st_平均就学年数": 6.518157697, "st_一人当たりGNI": 4037.705141, "st_HDI_rank": "145", "st_HDI_category": 2 }, "geometry": { "type": "Point", "coordinates": [ 97.145207714285704, 19.997216442857148 ] } },
{ "type": "Feature", "properties": { "OID": 111, "st_Name_jp": "モザンビーク", "st_HDI_value": 0.461, "st_平均寿命": 59.625, "st_期待就学年数": 10.72532345, "st_平均就学年数": 3.860090017, "st_一人当たりGNI": 1219.241361, "st_HDI_rank": "183", "st_HDI_category": 1 }, "geometry": { "type": "Point", "coordinates": [ 34.865522233766235, -17.91259250649351 ] } },
{ "type": "Feature", "properties": { "OID": 110, "st_Name_jp": "モンゴル", "st_HDI_value": 0.741, "st_平均寿命": 72.667, "st_期待就学年数": 14.51719515, "st_平均就学年数": 9.423700333, "st_一人当たりGNI": 10350.86141, "st_HDI_rank": "99", "st_HDI_category": 3 }, "geometry": { "type": "Point", "coordinates": [ 104.585426373333334, 47.204515053333324 ] } },
{ "type": "Feature", "properties": { "OID": 105, "st_Name_jp": "北マケドニア", "st_HDI_value": 0.765, "st_平均寿命": 73.888, "st_期待就学年数": 13.00483036, "st_平均就学年数": 10.22815037, "st_一人当たりGNI": 16395.75173, "st_HDI_rank": "82", "st_HDI_category": 3 }, "geometry": { "type": "Point", "coordinates": [ 21.582212352941184, 41.646086470588237 ] } },
{ "type": "Feature", "properties": { "OID": 104, "st_Name_jp": "メキシコ", "st_HDI_value": 0.781, "st_平均寿命": 74.832, "st_期待就学年数": 14.50529957, "st_平均就学年数": 9.221050262, "st_一人当たりGNI": 19138.00726, "st_HDI_rank": "83", "st_HDI_category": 3 }, "geometry": { "type": "Point", "coordinates": [ -103.013187711764715, 23.835365364705869 ] } },
{ "type": "Feature", "properties": { "OID": 107, "st_Name_jp": "マルタ", "st_HDI_value": 0.915, "st_平均寿命": 83.704, "st_期待就学年数": 15.86133957, "st_平均就学年数": 12.21026039, "st_一人当たりGNI": 44464.03057, "st_HDI_rank": "25", "st_HDI_category": 4 }, "geometry": { "type": "Point", "coordinates": [ 14.370846687499997, 35.961623062499996 ] } },
{ "type": "Feature", "properties": { "OID": 106, "st_Name_jp": "マリ", "st_HDI_value": 0.41, "st_平均寿命": 59.417, "st_期待就学年数": 7.037249603, "st_平均就学年数": 1.626710057, "st_一人当たりGNI": 2043.672433, "st_HDI_rank": "188", "st_HDI_category": 1 }, "geometry": { "type": "Point", "coordinates": [ -5.810730526315787, 14.10814775 ] } },
{ "type": "Feature", "properties": { "OID": 101, "st_Name_jp": "モロッコ", "st_HDI_value": 0.698, "st_平均寿命": 74.973, "st_期待就学年数": 14.59442043, "st_平均就学年数": 6.05, "st_一人当たりGNI": 7954.522461, "st_HDI_rank": "122", "st_HDI_category": 2 }, "geometry": { "type": "Point", "coordinates": [ -9.463683562499996, 28.76161475 ] } },
{ "type": "Feature", "properties": { "OID": 100, "st_Name_jp": "ラトビア", "st_HDI_value": 0.879, "st_平均寿命": 75.927, "st_期待就学年数": 16.55606079, "st_平均就学年数": 13.33330305, "st_一人当たりGNI": 32082.98104, "st_HDI_rank": "39", "st_HDI_category": 4 }, "geometry": { "type": "Point", "coordinates": [ 24.656921909090908, 56.79205409090909 ] } },
{ "type": "Feature", "properties": { "OID": 103, "st_Name_jp": "マダガスカル", "st_HDI_value": 0.487, "st_平均寿命": 65.23, "st_期待就学年数": 9.213435879, "st_平均就学年数": 4.592520237, "st_一人当たりGNI": 1463.547925, "st_HDI_rank": "177", "st_HDI_category": 1 }, "geometry": { "type": "Point", "coordinates": [ 46.989215081632636, -17.97148510204082 ] } },
{ "type": "Feature", "properties": { "OID": 102, "st_Name_jp": "モルドバ", "st_HDI_value": 0.763, "st_平均寿命": 68.621, "st_期待就学年数": 14.90598011, "st_平均就学年数": 11.8338152, "st_一人当たりGNI": 12963.61829, "st_HDI_rank": "81", "st_HDI_category": 3 }, "geometry": { "type": "Point", "coordinates": [ 28.470352111111112, 47.046639555555565 ] } },
{ "type": "Feature", "properties": { "OID": 97, "st_Name_jp": "レソト", "st_HDI_value": 0.521, "st_平均寿命": 53.036, "st_期待就学年数": 11.07051125, "st_平均就学年数": 7.545058784, "st_一人当たりGNI": 2708.731464, "st_HDI_rank": "168", "st_HDI_category": 1 }, "geometry": { "type": "Point", "coordinates": [ 28.370332416666667, -29.584757416666665 ] } },
{ "type": "Feature", "properties": { "OID": 96, "st_Name_jp": "スリランカ", "st_HDI_value": 0.78, "st_平均寿命": 76.61, "st_期待就学年数": 13.64182201, "st_平均就学年数": 11.24960995, "st_一人当たりGNI": 11899.49847, "st_HDI_rank": "76", "st_HDI_category": 3 }, "geometry": { "type": "Point", "coordinates": [ 80.863819099999986, 7.6314413 ] } },
{ "type": "Feature", "properties": { "OID": 99, "st_Name_jp": "ルクセンブルグ", "st_HDI_value": 0.927, "st_平均寿命": 82.591, "st_期待就学年数": 14.19705009, "st_平均就学年数": 12.9600811, "st_一人当たりGNI": 78554.2364, "st_HDI_rank": "19", "st_HDI_category": 4 }, "geometry": { "type": "Point", "coordinates": [ 5.981349285714286, 49.812087428571431 ] } },
{ "type": "Feature", "properties": { "OID": 98, "st_Name_jp": "リトアニア", "st_HDI_value": 0.879, "st_平均寿命": 74.293, "st_期待就学年数": 16.39982986, "st_平均就学年数": 13.49810028, "st_一人当たりGNI": 38131.23588, "st_HDI_rank": "36", "st_HDI_category": 4 }, "geometry": { "type": "Point", "coordinates": [ 23.818487842105267, 55.133184789473667 ] } },
{ "type": "Feature", "properties": { "OID": 93, "st_Name_jp": "レバノン", "st_HDI_value": 0.723, "st_平均寿命": 74.416, "st_期待就学年数": 12.05109224, "st_平均就学年数": 8.602969077, "st_一人当たりGNI": 12313.42257, "st_HDI_rank": "104", "st_HDI_category": 3 }, "geometry": { "type": "Point", "coordinates": [ 35.851669727272728, 33.798193181818185 ] } },
{ "type": "Feature", "properties": { "OID": 92, "st_Name_jp": "ラオス", "st_HDI_value": 0.62, "st_平均寿命": 68.999, "st_期待就学年数": 10.18749046, "st_平均就学年数": 5.94697053, "st_一人当たりGNI": 7744.837346, "st_HDI_rank": "140", "st_HDI_category": 2 }, "geometry": { "type": "Point", "coordinates": [ 103.634471081081074, 18.285540405405406 ] } },
{ "type": "Feature", "properties": { "OID": 95, "st_Name_jp": "リビア", "st_HDI_value": 0.746, "st_平均寿命": 72.151, "st_期待就学年数": 13.977117, "st_平均就学年数": 7.77860643, "st_一人当たりGNI": 19751.56758, "st_HDI_rank": "90", "st_HDI_category": 3 }, "geometry": { "type": "Point", "coordinates": [ 16.456980928571433, 28.49224398214286 ] } },
{ "type": "Feature", "properties": { "OID": 94, "st_Name_jp": "リベリア", "st_HDI_value": 0.487, "st_平均寿命": 61.1, "st_期待就学年数": 10.46585369, "st_平均就学年数": 5.318104412, "st_一人当たりGNI": 1330.419917, "st_HDI_rank": "177", "st_HDI_category": 1 }, "geometry": { "type": "Point", "coordinates": [ -9.115772666666667, 6.630890444444446 ] } },
{ "type": "Feature", "properties": { "OID": 89, "st_Name_jp": "韓国", "st_HDI_value": 0.929, "st_平均寿命": 84.024, "st_期待就学年数": 16.50964928, "st_平均就学年数": 12.61409234, "st_一人当たりGNI": 46026.4542, "st_HDI_rank": "20", "st_HDI_category": 4 }, "geometry": { "type": "Point", "coordinates": [ 127.581905263157893, 36.761904421052634 ] } },
{ "type": "Feature", "properties": { "OID": 88, "st_Name_jp": "カンボジア", "st_HDI_value": 0.6, "st_平均寿命": 69.896, "st_期待就学年数": 11.56094805, "st_平均就学年数": 5.197100163, "st_一人当たりGNI": 4291.113168, "st_HDI_rank": "147", "st_HDI_category": 2 }, "geometry": { "type": "Point", "coordinates": [ 104.94884347058823, 12.549848411764705 ] } },
{ "type": "Feature", "properties": { "OID": 91, "st_Name_jp": "クウェート", "st_HDI_value": 0.847, "st_平均寿命": 80.264, "st_期待就学年数": 15.6911416, "st_平均就学年数": 7.441742908, "st_一人当たりGNI": 56729.18152, "st_HDI_rank": "50", "st_HDI_category": 4 }, "geometry": { "type": "Point", "coordinates": [ 47.742474666666666, 29.336788333333331 ] } },
{ "type": "Feature", "properties": { "OID": 90, "st_Name_jp": "コソボ", "st_HDI_value": 0.0, "st_平均寿命": 0.0, "st_期待就学年数": 0.0, "st_平均就学年数": 0.0, "st_一人当たりGNI": 0.0, "st_HDI_rank": "0", "st_HDI_category": 0 }, "geometry": { "type": "Point", "coordinates": [ 20.965219095238094, 42.555348523809528 ] } },
{ "type": "Feature", "properties": { "OID": 85, "st_Name_jp": "カザフスタン", "st_HDI_value": 0.802, "st_平均寿命": 69.489, "st_期待就学年数": 14.81626987, "st_平均就学年数": 12.43337895, "st_一人当たりGNI": 22586.79889, "st_HDI_rank": "65", "st_HDI_category": 4 }, "geometry": { "type": "Point", "coordinates": [ 65.10595068749997, 47.201753625000016 ] } },
{ "type": "Feature", "properties": { "OID": 84, "st_Name_jp": "日本", "st_HDI_value": 0.92, "st_平均寿命": 84.82, "st_期待就学年数": 15.45631981, "st_平均就学年数": 12.66923046, "st_一人当たりGNI": 43643.86417, "st_HDI_rank": "22", "st_HDI_category": 4 }, "geometry": { "type": "Point", "coordinates": [ 137.166001984615377, 37.202277323076935 ] } },
{ "type": "Feature", "properties": { "OID": 87, "st_Name_jp": "キルギスタン", "st_HDI_value": 0.701, "st_平均寿命": 70.484, "st_期待就学年数": 12.99493027, "st_平均就学年数": 11.96131992, "st_一人当たりGNI": 4781.692046, "st_HDI_rank": "116", "st_HDI_category": 3 }, "geometry": { "type": "Point", "coordinates": [ 73.9767592, 41.3637508 ] } },
{ "type": "Feature", "properties": { "OID": 86, "st_Name_jp": "ケニア", "st_HDI_value": 0.601, "st_平均寿命": 62.055, "st_期待就学年数": 11.38448201, "st_平均就学年数": 7.686359882, "st_一人当たりGNI": 4807.716317, "st_HDI_rank": "147", "st_HDI_category": 2 }, "geometry": { "type": "Point", "coordinates": [ 37.872120891891875, 1.217671756756757 ] } },
{ "type": "Feature", "properties": { "OID": 81, "st_Name_jp": "イタリア", "st_HDI_value": 0.906, "st_平均寿命": 84.057, "st_期待就学年数": 16.65806007, "st_平均就学年数": 10.7401104, "st_一人当たりGNI": 44284.15735, "st_HDI_rank": "30", "st_HDI_category": 4 }, "geometry": { "type": "Point", "coordinates": [ 12.445416114479038, 42.906900377245769 ] } },
{ "type": "Feature", "properties": { "OID": 80, "st_Name_jp": "イスラエル", "st_HDI_value": 0.915, "st_平均寿命": 82.601, "st_期待就学年数": 15.02984047, "st_平均就学年数": 13.44279092, "st_一人当たりGNI": 43588.25725, "st_HDI_rank": "26", "st_HDI_category": 4 }, "geometry": { "type": "Point", "coordinates": [ 34.967772450299599, 32.331730616423798 ] } },
{ "type": "Feature", "properties": { "OID": 83, "st_Name_jp": "ヨルダン", "st_HDI_value": 0.736, "st_平均寿命": 74.215, "st_期待就学年数": 12.62659427, "st_平均就学年数": 10.44668007, "st_一人当たりGNI": 9294.801499, "st_HDI_rank": "98", "st_HDI_category": 3 }, "geometry": { "type": "Point", "coordinates": [ 36.650725052631579, 31.132471052631583 ] } },
{ "type": "Feature", "properties": { "OID": 82, "st_Name_jp": "ジャマイカ", "st_HDI_value": 0.706, "st_平均寿命": 70.629, "st_期待就学年数": 12.45977059, "st_平均就学年数": 9.248188719, "st_一人当たりGNI": 9694.522766, "st_HDI_rank": "114", "st_HDI_category": 3 }, "geometry": { "type": "Point", "coordinates": [ -77.348052272727273, 18.187741363636363 ] } },
{ "type": "Feature", "properties": { "OID": 77, "st_Name_jp": "イラン", "st_HDI_value": 0.78, "st_平均寿命": 74.556, "st_期待就学年数": 14.11717033, "st_平均就学年数": 10.74618321, "st_一人当たりGNI": 14770.32307, "st_HDI_rank": "77", "st_HDI_category": 3 }, "geometry": { "type": "Point", "coordinates": [ 53.41602012, 33.400096693333325 ] } },
{ "type": "Feature", "properties": { "OID": 76, "st_Name_jp": "アイルランド", "st_HDI_value": 0.95, "st_平均寿命": 82.716, "st_期待就学年数": 19.12610054, "st_平均就学年数": 11.6569568, "st_一人当たりGNI": 87467.51391, "st_HDI_rank": "9", "st_HDI_category": 4 }, "geometry": { "type": "Point", "coordinates": [ -7.723323615384617, 53.531523076923079 ] } },
{ "type": "Feature", "properties": { "OID": 79, "st_Name_jp": "アイスランド", "st_HDI_value": 0.959, "st_平均寿命": 82.815, "st_期待就学年数": 19.10672951, "st_平均就学年数": 13.76716995, "st_一人当たりGNI": 54688.37921, "st_HDI_rank": "4", "st_HDI_category": 4 }, "geometry": { "type": "Point", "coordinates": [ -19.2659774, 65.278028699999979 ] } },
{ "type": "Feature", "properties": { "OID": 78, "st_Name_jp": "イラク", "st_HDI_value": 0.673, "st_平均寿命": 71.336, "st_期待就学年数": 12.22275571, "st_平均就学年数": 6.811878947, "st_一人当たりGNI": 9091.865377, "st_HDI_rank": "128", "st_HDI_category": 2 }, "geometry": { "type": "Point", "coordinates": [ 44.606247466666673, 33.5658232 ] } },
{ "type": "Feature", "properties": { "OID": 73, "st_Name_jp": "ハンガリー", "st_HDI_value": 0.851, "st_平均寿命": 74.958, "st_期待就学年数": 15.07330036, "st_平均就学年数": 12.24958992, "st_一人当たりGNI": 34195.54059, "st_HDI_rank": "46", "st_HDI_category": 4 }, "geometry": { "type": "Point", "coordinates": [ 19.055115612903222, 47.414137161290327 ] } },
{ "type": "Feature", "properties": { "OID": 72, "st_Name_jp": "ハイチ", "st_HDI_value": 0.552, "st_平均寿命": 63.728, "st_期待就学年数": 11.13756869, "st_平均就学年数": 5.609468426, "st_一人当たりGNI": 2801.712516, "st_HDI_rank": "158", "st_HDI_category": 2 }, "geometry": { "type": "Point", "coordinates": [ -72.772900904761897, 18.84919557142857 ] } },
{ "type": "Feature", "properties": { "OID": 75, "st_Name_jp": "インド", "st_HDI_value": 0.644, "st_平均寿命": 67.744, "st_期待就学年数": 12.58370972, "st_平均就学年数": 6.570700169, "st_一人当たりGNI": 6950.526798, "st_HDI_rank": "135", "st_HDI_category": 2 }, "geometry": { "type": "Point", "coordinates": [ 81.307151858768236, 23.430091136266704 ] } },
{ "type": "Feature", "properties": { "OID": 74, "st_Name_jp": "インドネシア", "st_HDI_value": 0.713, "st_平均寿命": 68.25, "st_期待就学年数": 13.97573724, "st_平均就学年数": 8.556509972000001, "st_一人当たりGNI": 12045.56544, "st_HDI_rank": "113", "st_HDI_category": 3 }, "geometry": { "type": "Point", "coordinates": [ 119.666876900000048, -3.21713324 ] } },
{ "type": "Feature", "properties": { "OID": 69, "st_Name_jp": "ガイアナ", "st_HDI_value": 0.742, "st_平均寿命": 65.989, "st_期待就学年数": 13.02205765, "st_平均就学年数": 8.627408726000001, "st_一人当たりGNI": 35782.90961, "st_HDI_rank": "105", "st_HDI_category": 3 }, "geometry": { "type": "Point", "coordinates": [ -58.978813725000023, 4.643209175 ] } },
{ "type": "Feature", "properties": { "OID": 68, "st_Name_jp": "フランス領ギニア", "st_HDI_value": 0.0, "st_平均寿命": 0.0, "st_期待就学年数": 0.0, "st_平均就学年数": 0.0, "st_一人当たりGNI": 0.0, "st_HDI_rank": "0", "st_HDI_category": 0 }, "geometry": { "type": "Point", "coordinates": [ -53.418497842105261, 3.460923263157895 ] } },
{ "type": "Feature", "properties": { "OID": 71, "st_Name_jp": "クロアチア", "st_HDI_value": 0.878, "st_平均寿命": 79.236, "st_期待就学年数": 15.57269955, "st_平均就学年数": 12.32871821, "st_一人当たりGNI": 34323.80663, "st_HDI_rank": "37", "st_HDI_category": 4 }, "geometry": { "type": "Point", "coordinates": [ 16.43715930952381, 44.887555023809533 ] } },
{ "type": "Feature", "properties": { "OID": 70, "st_Name_jp": "ホンジュラス", "st_HDI_value": 0.624, "st_平均寿命": 70.728, "st_期待就学年数": 9.961707633, "st_平均就学年数": 7.296200514, "st_一人当たりGNI": 5271.604988, "st_HDI_rank": "138", "st_HDI_category": 2 }, "geometry": { "type": "Point", "coordinates": [ -86.381146052631578, 14.711019 ] } },
{ "type": "Feature", "properties": { "OID": 65, "st_Name_jp": "ギリシャ", "st_HDI_value": 0.893, "st_平均寿命": 80.614, "st_期待就学年数": 20.02638054, "st_平均就学年数": 11.40853024, "st_一人当たりGNI": 31381.667, "st_HDI_rank": "33", "st_HDI_category": 4 }, "geometry": { "type": "Point", "coordinates": [ 22.362819677194921, 39.030079396278744 ] } },
{ "type": "Feature", "properties": { "OID": 64, "st_Name_jp": "赤道ギニア", "st_HDI_value": 0.65, "st_平均寿命": 61.19, "st_期待就学年数": 12.13132742, "st_平均就学年数": 8.281327014, "st_一人当たりGNI": 10662.65921, "st_HDI_rank": "133", "st_HDI_category": 2 }, "geometry": { "type": "Point", "coordinates": [ 10.047480142857141, 1.407374857142857 ] } },
{ "type": "Feature", "properties": { "OID": 67, "st_Name_jp": "グアテマラ", "st_HDI_value": 0.629, "st_平均寿命": 68.674, "st_期待就学年数": 10.76720388, "st_平均就学年数": 5.668648013, "st_一人当たりGNI": 8996.415822000001, "st_HDI_rank": "136", "st_HDI_category": 2 }, "geometry": { "type": "Point", "coordinates": [ -90.208855971428576, 15.508185542857142 ] } },
{ "type": "Feature", "properties": { "OID": 66, "st_Name_jp": "グリーンランド", "st_HDI_value": 0.0, "st_平均寿命": 0.0, "st_期待就学年数": 0.0, "st_平均就学年数": 0.0, "st_一人当たりGNI": 0.0, "st_HDI_rank": "0", "st_HDI_category": 0 }, "geometry": { "type": "Point", "coordinates": [ -41.031455909090909, 74.147631757575766 ] } },
{ "type": "Feature", "properties": { "OID": 61, "st_Name_jp": "ギニア", "st_HDI_value": 0.471, "st_平均寿命": 58.985, "st_期待就学年数": 10.20014763, "st_平均就学年数": 2.35910296, "st_一人当たりGNI": 2404.165832, "st_HDI_rank": "182", "st_HDI_category": 1 }, "geometry": { "type": "Point", "coordinates": [ -10.909395785714288, 10.348828257142859 ] } },
{ "type": "Feature", "properties": { "OID": 60, "st_Name_jp": "ガーナ", "st_HDI_value": 0.602, "st_平均寿命": 63.945, "st_期待就学年数": 11.58627987, "st_平均就学年数": 6.432318439, "st_一人当たりGNI": 5380.271535, "st_HDI_rank": "144", "st_HDI_category": 2 }, "geometry": { "type": "Point", "coordinates": [ -0.92916568, 8.08674608 ] } },
{ "type": "Feature", "properties": { "OID": 63, "st_Name_jp": "ギニアビサウ", "st_HDI_value": 0.483, "st_平均寿命": 59.861, "st_期待就学年数": 10.5316806, "st_平均就学年数": 3.673035, "st_一人当たりGNI": 1879.853611, "st_HDI_rank": "179", "st_HDI_category": 1 }, "geometry": { "type": "Point", "coordinates": [ -15.132555052631579, 11.908241315789475 ] } },
{ "type": "Feature", "properties": { "OID": 62, "st_Name_jp": "ガンビア", "st_HDI_value": 0.495, "st_平均寿命": 62.906, "st_期待就学年数": 8.977899686000001, "st_平均就学年数": 4.512420177, "st_一人当たりGNI": 2089.626826, "st_HDI_rank": "174", "st_HDI_category": 1 }, "geometry": { "type": "Point", "coordinates": [ -15.295172, 13.473803312499999 ] } },
{ "type": "Feature", "properties": { "OID": 57, "st_Name_jp": "ガボン", "st_HDI_value": 0.693, "st_平均寿命": 65.694, "st_期待就学年数": 12.43426472, "st_平均就学年数": 9.55, "st_一人当たりGNI": 11194.21884, "st_HDI_rank": "123", "st_HDI_category": 2 }, "geometry": { "type": "Point", "coordinates": [ 11.885480806451614, -0.538766451612903 ] } },
{ "type": "Feature", "properties": { "OID": 56, "st_Name_jp": "フランス", "st_HDI_value": 0.91, "st_平均寿命": 83.229, "st_期待就学年数": 15.98756027, "st_平均就学年数": 11.68859246, "st_一人当たりGNI": 47378.74304, "st_HDI_rank": "27", "st_HDI_category": 4 }, "geometry": { "type": "Point", "coordinates": [ 3.992865836363636, 46.4054882 ] } },
{ "type": "Feature", "properties": { "OID": 59, "st_Name_jp": "ジョージア", "st_HDI_value": 0.814, "st_平均寿命": 71.587, "st_期待就学年数": 16.72682953, "st_平均就学年数": 12.70217037, "st_一人当たりGNI": 15952.02452, "st_HDI_rank": "59", "st_HDI_category": 4 }, "geometry": { "type": "Point", "coordinates": [ 43.430270208333347, 42.179316416666666 ] } },
{ "type": "Feature", "properties": { "OID": 58, "st_Name_jp": "イギリス", "st_HDI_value": 0.94, "st_平均寿命": 82.156, "st_期待就学年数": 17.6342907, "st_平均就学年数": 13.4061203, "st_一人当たりGNI": 46623.90269, "st_HDI_rank": "17", "st_HDI_category": 4 }, "geometry": { "type": "Point", "coordinates": [ -3.601639125, 54.076514678571435 ] } },
{ "type": "Feature", "properties": { "OID": 53, "st_Name_jp": "フィンランド", "st_HDI_value": 0.942, "st_平均寿命": 82.351, "st_期待就学年数": 19.22859001, "st_平均就学年数": 12.92915501, "st_一人当たりGNI": 49522.09853, "st_HDI_rank": "11", "st_HDI_category": 4 }, "geometry": { "type": "Point", "coordinates": [ 25.771844210526314, 65.477075894736842 ] } },
{ "type": "Feature", "properties": { "OID": 52, "st_Name_jp": "エチオピア", "st_HDI_value": 0.492, "st_平均寿命": 65.645, "st_期待就学年数": 9.938743514, "st_平均就学年数": 2.390854081, "st_一人当たりGNI": 2368.758391, "st_HDI_rank": "176", "st_HDI_category": 1 }, "geometry": { "type": "Point", "coordinates": [ 39.041643203389818, 9.101322576271185 ] } },
{ "type": "Feature", "properties": { "OID": 55, "st_Name_jp": "フォークランド諸島", "st_HDI_value": 0.0, "st_平均寿命": 0.0, "st_期待就学年数": 0.0, "st_平均就学年数": 0.0, "st_一人当たりGNI": 0.0, "st_HDI_rank": "0", "st_HDI_category": 0 }, "geometry": { "type": "Point", "coordinates": [ -59.585, -51.735 ] } },
{ "type": "Feature", "properties": { "OID": 54, "st_Name_jp": "フィジー", "st_HDI_value": 0.729, "st_平均寿命": 68.312, "st_期待就学年数": 13.84869, "st_平均就学年数": 10.37096977, "st_一人当たりGNI": 11233.65882, "st_HDI_rank": "110", "st_HDI_category": 3 }, "geometry": { "type": "Point", "coordinates": [ 178.556911909697078, -17.110338874788297 ] } },
{ "type": "Feature", "properties": { "OID": 49, "st_Name_jp": "エリトリア", "st_HDI_value": 0.493, "st_平均寿命": 66.604, "st_期待就学年数": 7.318835512, "st_平均就学年数": 5.09136442, "st_一人当たりGNI": 1957.046464, "st_HDI_rank": "174", "st_HDI_category": 1 }, "geometry": { "type": "Point", "coordinates": [ 39.799836464285711, 14.6448815 ] } },
{ "type": "Feature", "properties": { "OID": 48, "st_Name_jp": "エジプト", "st_HDI_value": 0.728, "st_平均寿命": 70.159, "st_期待就学年数": 12.91180992, "st_平均就学年数": 9.84810224, "st_一人当たりGNI": 12360.8163, "st_HDI_rank": "103", "st_HDI_category": 3 }, "geometry": { "type": "Point", "coordinates": [ 31.51607952380952, 28.24341321428572 ] } },
{ "type": "Feature", "properties": { "OID": 51, "st_Name_jp": "エストニア", "st_HDI_value": 0.899, "st_平均寿命": 79.155, "st_期待就学年数": 15.94297981, "st_平均就学年数": 13.54843044, "st_一人当たりGNI": 37151.63384, "st_HDI_rank": "32", "st_HDI_category": 4 }, "geometry": { "type": "Point", "coordinates": [ 25.709913647058819, 58.506568941176468 ] } },
{ "type": "Feature", "properties": { "OID": 50, "st_Name_jp": "スペイン", "st_HDI_value": 0.911, "st_平均寿命": 83.912, "st_期待就学年数": 17.80905914, "st_平均就学年数": 10.60540009, "st_一人当たりGNI": 40043.33773, "st_HDI_rank": "28", "st_HDI_category": 4 }, "geometry": { "type": "Point", "coordinates": [ -4.481723274509802, 40.269064372549018 ] } },
{ "type": "Feature", "properties": { "OID": 45, "st_Name_jp": "ドミニカ国", "st_HDI_value": 0.766, "st_平均寿命": 74.17, "st_期待就学年数": 13.55698967, "st_平均就学年数": 9.150526383000001, "st_一人当たりGNI": 18653.26836, "st_HDI_rank": "84", "st_HDI_category": 3 }, "geometry": { "type": "Point", "coordinates": [ -70.493576692307698, 18.790197038461539 ] } },
{ "type": "Feature", "properties": { "OID": 44, "st_Name_jp": "デンマーク", "st_HDI_value": 0.952, "st_平均寿命": 81.882, "st_期待就学年数": 18.77403069, "st_平均就学年数": 12.96049023, "st_一人当たりGNI": 62018.95694, "st_HDI_rank": "8", "st_HDI_category": 4 }, "geometry": { "type": "Point", "coordinates": [ 9.893869649902278, 56.298874367793921 ] } },
{ "type": "Feature", "properties": { "OID": 47, "st_Name_jp": "エクアドル", "st_HDI_value": 0.765, "st_平均寿命": 77.894, "st_期待就学年数": 14.86483955, "st_平均就学年数": 8.969750404, "st_一人当たりGNI": 10693.23484, "st_HDI_rank": "90", "st_HDI_category": 3 }, "geometry": { "type": "Point", "coordinates": [ -78.853896363636366, -1.735584818181818 ] } },
{ "type": "Feature", "properties": { "OID": 46, "st_Name_jp": "アルジェリア", "st_HDI_value": 0.745, "st_平均寿命": 77.129, "st_期待就学年数": 15.48787975, "st_平均就学年数": 6.987443608, "st_一人当たりGNI": 10978.40571, "st_HDI_rank": "93", "st_HDI_category": 3 }, "geometry": { "type": "Point", "coordinates": [ 3.349875274193549, 29.602488645161298 ] } },
{ "type": "Feature", "properties": { "OID": 41, "st_Name_jp": "チェコ", "st_HDI_value": 0.895, "st_平均寿命": 78.129, "st_期待就学年数": 16.3472805, "st_平均就学年数": 12.91605342, "st_一人当たりGNI": 39944.66682, "st_HDI_rank": "31", "st_HDI_category": 4 }, "geometry": { "type": "Point", "coordinates": [ 15.903553828571431, 49.706953685714289 ] } },
{ "type": "Feature", "properties": { "OID": 40, "st_Name_jp": "キプロス", "st_HDI_value": 0.907, "st_平均寿命": 81.889, "st_期待就学年数": 16.24308968, "st_平均就学年数": 12.44017029, "st_一人当たりGNI": 40136.89453, "st_HDI_rank": "29", "st_HDI_category": 4 }, "geometry": { "type": "Point", "coordinates": [ 33.326954866666668, 35.019165133333331 ] } },
{ "type": "Feature", "properties": { "OID": 43, "st_Name_jp": "ジブチ", "st_HDI_value": 0.515, "st_平均寿命": 62.859, "st_期待就学年数": 8.028374362, "st_平均就学年数": 3.889984156, "st_一人当たりGNI": 4874.51828, "st_HDI_rank": "170", "st_HDI_category": 1 }, "geometry": { "type": "Point", "coordinates": [ 42.570793866666669, 11.810872666666663 ] } },
{ "type": "Feature", "properties": { "OID": 42, "st_Name_jp": "ドイツ", "st_HDI_value": 0.95, "st_平均寿命": 80.989, "st_期待就学年数": 17.34334946, "st_平均就学年数": 14.25594044, "st_一人当たりGNI": 55340.19722, "st_HDI_rank": "7", "st_HDI_category": 4 }, "geometry": { "type": "Point", "coordinates": [ 10.6187505, 51.065506258620694 ] } },
{ "type": "Feature", "properties": { "OID": 37, "st_Name_jp": "コスタリカ", "st_HDI_value": 0.806, "st_平均寿命": 77.32, "st_期待就学年数": 16.09200378, "st_平均就学年数": 8.804059982, "st_一人当たりGNI": 20248.38031, "st_HDI_rank": "60", "st_HDI_category": 4 }, "geometry": { "type": "Point", "coordinates": [ -84.173483527777776, 9.78489325 ] } },
{ "type": "Feature", "properties": { "OID": 36, "st_Name_jp": "コロンビア", "st_HDI_value": 0.758, "st_平均寿命": 73.659, "st_期待就学年数": 14.43749046, "st_平均就学年数": 8.862859726, "st_一人当たりGNI": 15013.92724, "st_HDI_rank": "89", "st_HDI_category": 3 }, "geometry": { "type": "Point", "coordinates": [ -72.737930630000022, 4.47664954 ] } },
{ "type": "Feature", "properties": { "OID": 38, "st_Name_jp": "キューバ", "st_HDI_value": 0.764, "st_平均寿命": 78.155, "st_期待就学年数": 14.46930027, "st_平均就学年数": 10.54807197, "st_一人当たりGNI": 7953.448426, "st_HDI_rank": "92", "st_HDI_category": 3 }, "geometry": { "type": "Point", "coordinates": [ -79.733094904761913, 21.722816714285717 ] } },
{ "type": "Feature", "properties": { "OID": 33, "st_Name_jp": "カメルーン", "st_HDI_value": 0.587, "st_平均寿命": 60.958, "st_期待就学年数": 13.38097793, "st_平均就学年数": 6.537401781, "st_一人当たりGNI": 3681.469988, "st_HDI_rank": "152", "st_HDI_category": 2 }, "geometry": { "type": "Point", "coordinates": [ 13.145333983606561, 6.732651573770491 ] } },
{ "type": "Feature", "properties": { "OID": 32, "st_Name_jp": "コートジボワール", "st_HDI_value": 0.534, "st_平均寿命": 58.916, "st_期待就学年数": 10.10165024, "st_平均就学年数": 4.23697763, "st_一人当たりGNI": 5376.396062, "st_HDI_rank": "166", "st_HDI_category": 1 }, "geometry": { "type": "Point", "coordinates": [ -6.233057434782609, 7.831305326086958 ] } },
{ "type": "Feature", "properties": { "OID": 35, "st_Name_jp": "コンゴ共和国", "st_HDI_value": 0.593, "st_平均寿命": 63.053, "st_期待就学年数": 12.41647044, "st_平均就学年数": 8.250552585, "st_一人当たりGNI": 2902.808037, "st_HDI_rank": "146", "st_HDI_category": 2 }, "geometry": { "type": "Point", "coordinates": [ 14.815730959183671, -1.089300836734694 ] } },
{ "type": "Feature", "properties": { "OID": 34, "st_Name_jp": "コンゴ民主共和国", "st_HDI_value": 0.481, "st_平均寿命": 59.743, "st_期待就学年数": 9.579486913, "st_平均就学年数": 7.206164799, "st_一人当たりGNI": 1080.138308, "st_HDI_rank": "180", "st_HDI_category": 1 }, "geometry": { "type": "Point", "coordinates": [ 23.013603983606561, -3.771089024590168 ] } },
{ "type": "Feature", "properties": { "OID": 29, "st_Name_jp": "スイス", "st_HDI_value": 0.967, "st_平均寿命": 84.255, "st_期待就学年数": 16.5837307, "st_平均就学年数": 13.90406622, "st_一人当たりGNI": 69432.78669, "st_HDI_rank": "1", "st_HDI_category": 4 }, "geometry": { "type": "Point", "coordinates": [ 8.354110756300152, 46.803288063977277 ] } },
{ "type": "Feature", "properties": { "OID": 28, "st_Name_jp": "カナダ", "st_HDI_value": 0.935, "st_平均寿命": 82.847, "st_期待就学年数": 15.96065044, "st_平均就学年数": 13.86876597, "st_一人当たりGNI": 48444.39319, "st_HDI_rank": "16", "st_HDI_category": 4 }, "geometry": { "type": "Point", "coordinates": [ -105.376815613145411, 60.261560203245679 ] } },
{ "type": "Feature", "properties": { "OID": 31, "st_Name_jp": "中国", "st_HDI_value": 0.788, "st_平均寿命": 78.587, "st_期待就学年数": 15.21793605, "st_平均就学年数": 8.106910446000001, "st_一人当たりGNI": 18024.88747, "st_HDI_rank": "74", "st_HDI_category": 3 }, "geometry": { "type": "Point", "coordinates": [ 106.164871602220558, 36.351073559181856 ] } },
{ "type": "Feature", "properties": { "OID": 30, "st_Name_jp": "チリ", "st_HDI_value": 0.86, "st_平均寿命": 79.519, "st_期待就学年数": 16.76792908, "st_平均就学年数": 11.11136804, "st_一人当たりGNI": 24430.99593, "st_HDI_rank": "42", "st_HDI_category": 4 }, "geometry": { "type": "Point", "coordinates": [ -72.848285777130528, -40.56133465187569 ] } },
{ "type": "Feature", "properties": { "OID": 25, "st_Name_jp": "ブータン", "st_HDI_value": 0.681, "st_平均寿命": 72.229, "st_期待就学年数": 13.06449041, "st_平均就学年数": 5.835794662, "st_一人当たりGNI": 10624.87388, "st_HDI_rank": "125", "st_HDI_category": 2 }, "geometry": { "type": "Point", "coordinates": [ 90.615132615384624, 27.467787 ] } },
{ "type": "Feature", "properties": { "OID": 24, "st_Name_jp": "ブルネイ・ダルサラーム国", "st_HDI_value": 0.823, "st_平均寿命": 74.551, "st_期待就学年数": 13.69861984, "st_平均就学年数": 9.22, "st_一人当たりGNI": 59245.63485, "st_HDI_rank": "53", "st_HDI_category": 4 }, "geometry": { "type": "Point", "coordinates": [ 114.842627375, 4.628413 ] } },
{ "type": "Feature", "properties": { "OID": 27, "st_Name_jp": "中央アフリカ共和国", "st_HDI_value": 0.387, "st_平均寿命": 54.477, "st_期待就学年数": 7.285887393, "st_平均就学年数": 3.9531639, "st_一人当たりGNI": 869.11237, "st_HDI_rank": "191", "st_HDI_category": 1 }, "geometry": { "type": "Point", "coordinates": [ 20.507985967741938, 6.329532338709678 ] } },
{ "type": "Feature", "properties": { "OID": 26, "st_Name_jp": "ボツワナ", "st_HDI_value": 0.708, "st_平均寿命": 65.913, "st_期待就学年数": 11.42568016, "st_平均就学年数": 10.42, "st_一人当たりGNI": 14841.57836, "st_HDI_rank": "124", "st_HDI_category": 3 }, "geometry": { "type": "Point", "coordinates": [ 24.37675015, -22.387776625 ] } },
{ "type": "Feature", "properties": { "OID": 21, "st_Name_jp": "バーミューダ", "st_HDI_value": 0.0, "st_平均寿命": 0.0, "st_期待就学年数": 0.0, "st_平均就学年数": 0.0, "st_一人当たりGNI": 0.0, "st_HDI_rank": "0", "st_HDI_category": 0 }, "geometry": { "type": "Point", "coordinates": [ -64.770137549853814, 32.313245467539829 ] } },
{ "type": "Feature", "properties": { "OID": 20, "st_Name_jp": "ベリーズ", "st_HDI_value": 0.7, "st_平均寿命": 70.962, "st_期待就学年数": 12.42656994, "st_平均就学年数": 8.847599983, "st_一人当たりGNI": 9242.082259000001, "st_HDI_rank": "115", "st_HDI_category": 3 }, "geometry": { "type": "Point", "coordinates": [ -88.63038305, 17.4171646 ] } },
{ "type": "Feature", "properties": { "OID": 23, "st_Name_jp": "ブラジル", "st_HDI_value": 0.76, "st_平均寿命": 73.425, "st_期待就学年数": 15.5788002, "st_平均就学年数": 8.278307638, "st_一人当たりGNI": 14615.89235, "st_HDI_rank": "84", "st_HDI_category": 3 }, "geometry": { "type": "Point", "coordinates": [ -56.947124605911327, -9.638989354679806 ] } },
{ "type": "Feature", "properties": { "OID": 22, "st_Name_jp": "ボリビア", "st_HDI_value": 0.698, "st_平均寿命": 64.928, "st_期待就学年数": 15.02243817, "st_平均就学年数": 9.827750206, "st_一人当たりGNI": 7987.842247, "st_HDI_rank": "119", "st_HDI_category": 2 }, "geometry": { "type": "Point", "coordinates": [ -64.0187022, -16.521309016666667 ] } },
{ "type": "Feature", "properties": { "OID": 17, "st_Name_jp": "バハマ", "st_HDI_value": 0.82, "st_平均寿命": 74.358, "st_期待就学年数": 11.89137971, "st_平均就学年数": 12.73161494, "st_一人当たりGNI": 32534.88784, "st_HDI_rank": "67", "st_HDI_category": 4 }, "geometry": { "type": "Point", "coordinates": [ -77.821414285714283, 25.735870476190474 ] } },
{ "type": "Feature", "properties": { "OID": 16, "st_Name_jp": "ブルガリア", "st_HDI_value": 0.799, "st_平均寿命": 71.528, "st_期待就学年数": 13.86802959, "st_平均就学年数": 11.41318035, "st_一人当たりGNI": 25920.80375, "st_HDI_rank": "70", "st_HDI_category": 3 }, "geometry": { "type": "Point", "coordinates": [ 24.687321107142854, 42.893661214285707 ] } },
{ "type": "Feature", "properties": { "OID": 19, "st_Name_jp": "ベラルーシ", "st_HDI_value": 0.801, "st_平均寿命": 73.246, "st_期待就学年数": 13.98153019, "st_平均就学年数": 12.24122445, "st_一人当たりGNI": 18425.01061, "st_HDI_rank": "65", "st_HDI_category": 4 }, "geometry": { "type": "Point", "coordinates": [ 28.114469863636373, 53.324597159090921 ] } },
{ "type": "Feature", "properties": { "OID": 18, "st_Name_jp": "ボスニア・ヘルツェゴヴィナ", "st_HDI_value": 0.779, "st_平均寿命": 75.293, "st_期待就学年数": 13.27705956, "st_平均就学年数": 10.53631973, "st_一人当たりGNI": 16571.41275, "st_HDI_rank": "77", "st_HDI_category": 3 }, "geometry": { "type": "Point", "coordinates": [ 17.892327636363635, 44.254814909090904 ] } },
{ "type": "Feature", "properties": { "OID": 13, "st_Name_jp": "ベナン", "st_HDI_value": 0.504, "st_平均寿命": 59.954, "st_期待就学年数": 10.30257988, "st_平均就学年数": 3.137261725, "st_一人当たりGNI": 3406.072937, "st_HDI_rank": "173", "st_HDI_category": 1 }, "geometry": { "type": "Point", "coordinates": [ 2.32725276, 9.80839996 ] } },
{ "type": "Feature", "properties": { "OID": 12, "st_Name_jp": "ベルギー", "st_HDI_value": 0.942, "st_平均寿命": 82.293, "st_期待就学年数": 18.94573975, "st_平均就学年数": 12.52857789, "st_一人当たりGNI": 53644.03854, "st_HDI_rank": "13", "st_HDI_category": 4 }, "geometry": { "type": "Point", "coordinates": [ 4.3921904, 50.668020466666661 ] } },
{ "type": "Feature", "properties": { "OID": 15, "st_Name_jp": "バングラデシュ", "st_HDI_value": 0.67, "st_平均寿命": 73.698, "st_期待就学年数": 11.94633007, "st_平均就学年数": 7.379059792, "st_一人当たりGNI": 6511.122178, "st_HDI_rank": "130", "st_HDI_category": 2 }, "geometry": { "type": "Point", "coordinates": [ 90.611320861111096, 23.398933861111107 ] } },
{ "type": "Feature", "properties": { "OID": 14, "st_Name_jp": "ブルキナファソ", "st_HDI_value": 0.438, "st_平均寿命": 59.766, "st_期待就学年数": 8.091560364, "st_平均就学年数": 2.318685239, "st_一人当たりGNI": 2036.997179, "st_HDI_rank": "185", "st_HDI_category": 1 }, "geometry": { "type": "Point", "coordinates": [ -1.850360512820512, 12.092759897435901 ] } },
{ "type": "Feature", "properties": { "OID": 9, "st_Name_jp": "オーストリア", "st_HDI_value": 0.926, "st_平均寿命": 82.412, "st_期待就学年数": 16.36746025, "st_平均就学年数": 12.30571367, "st_一人当たりGNI": 56529.66329, "st_HDI_rank": "22", "st_HDI_category": 4 }, "geometry": { "type": "Point", "coordinates": [ 13.382270622983089, 47.628537058675718 ] } },
{ "type": "Feature", "properties": { "OID": 8, "st_Name_jp": "オーストラリア", "st_HDI_value": 0.946, "st_平均寿命": 83.579, "st_期待就学年数": 21.0800209, "st_平均就学年数": 12.72681999, "st_一人当たりGNI": 49257.1352, "st_HDI_rank": "5", "st_HDI_category": 4 }, "geometry": { "type": "Point", "coordinates": [ 134.257977871369263, -25.008417136929427 ] } },
{ "type": "Feature", "properties": { "OID": 11, "st_Name_jp": "ブルンジ", "st_HDI_value": 0.42, "st_平均寿命": 61.977, "st_期待就学年数": 9.966378953, "st_平均就学年数": 3.305215598, "st_一人当たりGNI": 712.0260007000001, "st_HDI_rank": "187", "st_HDI_category": 1 }, "geometry": { "type": "Point", "coordinates": [ 29.95537653846154, -3.394282692307693 ] } },
{ "type": "Feature", "properties": { "OID": 10, "st_Name_jp": "アゼルバイジャン", "st_HDI_value": 0.76, "st_平均寿命": 73.488, "st_期待就学年数": 12.71063042, "st_平均就学年数": 10.55612992, "st_一人当たりGNI": 15018.05443, "st_HDI_rank": "95", "st_HDI_category": 3 }, "geometry": { "type": "Point", "coordinates": [ 47.006653477272728, 40.15540813636364 ] } },
{ "type": "Feature", "properties": { "OID": 5, "st_Name_jp": "アルメニア", "st_HDI_value": 0.786, "st_平均寿命": 73.372, "st_期待就学年数": 14.40561008, "st_平均就学年数": 11.33030033, "st_一人当たりGNI": 15388.29976, "st_HDI_rank": "79", "st_HDI_category": 3 }, "geometry": { "type": "Point", "coordinates": [ 45.16424355, 40.0615628 ] } },
{ "type": "Feature", "properties": { "OID": 4, "st_Name_jp": "アルゼンチン", "st_HDI_value": 0.849, "st_平均寿命": 76.064, "st_期待就学年数": 18.97950935, "st_平均就学年数": 11.14408016, "st_一人当たりGNI": 22047.97131, "st_HDI_rank": "47", "st_HDI_category": 4 }, "geometry": { "type": "Point", "coordinates": [ -65.317759479338847, -38.534930619834718 ] } },
{ "type": "Feature", "properties": { "OID": 7, "st_Name_jp": "フランス領南方・南極地域", "st_HDI_value": 0.0, "st_平均寿命": 0.0, "st_期待就学年数": 0.0, "st_平均就学年数": 0.0, "st_一人当たりGNI": 0.0, "st_HDI_rank": "0", "st_HDI_category": 0 }, "geometry": { "type": "Point", "coordinates": [ 69.460833333333341, -49.118611111111107 ] } },
{ "type": "Feature", "properties": { "OID": 6, "st_Name_jp": "南極大陸", "st_HDI_value": 0.0, "st_平均寿命": 0.0, "st_期待就学年数": 0.0, "st_平均就学年数": 0.0, "st_一人当たりGNI": 0.0, "st_HDI_rank": "0", "st_HDI_category": 0 }, "geometry": { "type": "Point", "coordinates": [ -16.10529907926831, -73.303256102134284 ] } },
{ "type": "Feature", "properties": { "OID": 1, "st_Name_jp": "アンゴラ", "st_HDI_value": 0.591, "st_平均寿命": 61.929, "st_期待就学年数": 12.1676, "st_平均就学年数": 5.844291601, "st_一人当たりGNI": 5327.788251, "st_HDI_rank": "150", "st_HDI_category": 2 }, "geometry": { "type": "Point", "coordinates": [ 16.840492466666667, -10.23970748 ] } },
{ "type": "Feature", "properties": { "OID": 0, "st_Name_jp": "アフガニスタン", "st_HDI_value": 0.462, "st_平均寿命": 62.879, "st_期待就学年数": 10.70538475, "st_平均就学年数": 2.514790058, "st_一人当たりGNI": 1335.205733, "st_HDI_rank": "181", "st_HDI_category": 1 }, "geometry": { "type": "Point", "coordinates": [ 67.691086623188397, 34.803653536231892 ] } },
{ "type": "Feature", "properties": { "OID": 3, "st_Name_jp": "アラブ首長国連邦", "st_HDI_value": 0.937, "st_平均寿命": 79.196, "st_期待就学年数": 17.20813942, "st_平均就学年数": 12.77375031, "st_一人当たりGNI": 74103.71494000001, "st_HDI_rank": "17", "st_HDI_category": 4 }, "geometry": { "type": "Point", "coordinates": [ 54.243401318181824, 24.195379136363634 ] } },
{ "type": "Feature", "properties": { "OID": 2, "st_Name_jp": "アルバニア", "st_HDI_value": 0.789, "st_平均寿命": 76.833, "st_期待就学年数": 14.48746967, "st_平均就学年数": 10.12114431, "st_一人当たりGNI": 15293.32651, "st_HDI_rank": "74", "st_HDI_category": 3 }, "geometry": { "type": "Point", "coordinates": [ 20.109588090909089, 41.273218454545457 ] } },
{ "type": "Feature", "properties": { "OID": 249, "st_Name_jp": "サウスジョージア・サウスサンドウィッチ諸島", "st_HDI_value": 0.0, "st_平均寿命": 0.0, "st_期待就学年数": 0.0, "st_平均就学年数": 0.0, "st_一人当たりGNI": 0.0, "st_HDI_rank": "0", "st_HDI_category": 0 }, "geometry": { "type": "Point", "coordinates": [ -29.909071724999983, -56.788712 ] } },
{ "type": "Feature", "properties": { "OID": 248, "st_Name_jp": "ジャージー", "st_HDI_value": 0.0, "st_平均寿命": 0.0, "st_期待就学年数": 0.0, "st_平均就学年数": 0.0, "st_一人当たりGNI": 0.0, "st_HDI_rank": "0", "st_HDI_category": 0 }, "geometry": { "type": "Point", "coordinates": [ -2.120625, 49.2155535 ] } },
{ "type": "Feature", "properties": { "OID": 245, "st_Name_jp": "セントマーチン", "st_HDI_value": 0.0, "st_平均寿命": 0.0, "st_期待就学年数": 0.0, "st_平均就学年数": 0.0, "st_一人当たりGNI": 0.0, "st_HDI_rank": "0", "st_HDI_category": 0 }, "geometry": { "type": "Point", "coordinates": [ -63.041158499999909, 18.07174675 ] } },
{ "type": "Feature", "properties": { "OID": 244, "st_Name_jp": "スヴァールバル諸島", "st_HDI_value": 0.0, "st_平均寿命": 0.0, "st_期待就学年数": 0.0, "st_平均就学年数": 0.0, "st_一人当たりGNI": 0.0, "st_HDI_rank": "0", "st_HDI_category": 0 }, "geometry": { "type": "Point", "coordinates": [ 19.63883127630713, 78.917214653708712 ] } },
{ "type": "Feature", "properties": { "OID": 247, "st_Name_jp": "ガーンジー", "st_HDI_value": 0.0, "st_平均寿命": 0.0, "st_期待就学年数": 0.0, "st_平均就学年数": 0.0, "st_一人当たりGNI": 0.0, "st_HDI_rank": "0", "st_HDI_category": 0 }, "geometry": { "type": "Point", "coordinates": [ -2.58840325, 49.446731500000027 ] } },
{ "type": "Feature", "properties": { "OID": 246, "st_Name_jp": "サン・バルテルミー島", "st_HDI_value": 0.0, "st_平均寿命": 0.0, "st_期待就学年数": 0.0, "st_平均就学年数": 0.0, "st_一人当たりGNI": 0.0, "st_HDI_rank": "0", "st_HDI_category": 0 }, "geometry": { "type": "Point", "coordinates": [ -63.051992499999976, 18.03924575 ] } },
{ "type": "Feature", "properties": { "OID": 241, "st_Name_jp": "サンマリノ", "st_HDI_value": 0.867, "st_平均寿命": 83.433, "st_期待就学年数": 12.40295982, "st_平均就学年数": 10.52074301, "st_一人当たりGNI": 57686.54334, "st_HDI_rank": "44", "st_HDI_category": 4 }, "geometry": { "type": "Point", "coordinates": [ 12.45019, 43.94973925 ] } },
{ "type": "Feature", "properties": { "OID": 240, "st_Name_jp": "セントヘレナ", "st_HDI_value": 0.0, "st_平均寿命": 0.0, "st_期待就学年数": 0.0, "st_平均就学年数": 0.0, "st_一人当たりGNI": 0.0, "st_HDI_rank": "0", "st_HDI_category": 0 }, "geometry": { "type": "Point", "coordinates": [ -10.562101437499948, -25.340228187499999 ] } },
{ "type": "Feature", "properties": { "OID": 243, "st_Name_jp": "バチカン", "st_HDI_value": 0.0, "st_平均寿命": 0.0, "st_期待就学年数": 0.0, "st_平均就学年数": 0.0, "st_一人当たりGNI": 0.0, "st_HDI_rank": "0", "st_HDI_category": 0 }, "geometry": { "type": "Point", "coordinates": [ 12.449623543077919, 41.903912525415066 ] } },
{ "type": "Feature", "properties": { "OID": 242, "st_Name_jp": "タークス・カイコス諸島", "st_HDI_value": 0.0, "st_平均寿命": 0.0, "st_期待就学年数": 0.0, "st_平均就学年数": 0.0, "st_一人当たりGNI": 0.0, "st_HDI_rank": "0", "st_HDI_category": 0 }, "geometry": { "type": "Point", "coordinates": [ -71.831268874999964, 21.71874825 ] } },
{ "type": "Feature", "properties": { "OID": 237, "st_Name_jp": "パラオ", "st_HDI_value": 0.797, "st_平均寿命": 65.362, "st_期待就学年数": 17.21987569, "st_平均就学年数": 13.04790021, "st_一人当たりGNI": 19343.81199, "st_HDI_rank": "64", "st_HDI_category": 3 }, "geometry": { "type": "Point", "coordinates": [ 134.064418321428604, 6.92167575000002 ] } },
{ "type": "Feature", "properties": { "OID": 236, "st_Name_jp": "ピトケアン諸島", "st_HDI_value": 0.0, "st_平均寿命": 0.0, "st_期待就学年数": 0.0, "st_平均就学年数": 0.0, "st_一人当たりGNI": 0.0, "st_HDI_rank": "0", "st_HDI_category": 0 }, "geometry": { "type": "Point", "coordinates": [ -127.722970416666655, -24.704144583333331 ] } },
{ "type": "Feature", "properties": { "OID": 239, "st_Name_jp": "サンピエール島及びミクロン島", "st_HDI_value": 0.0, "st_平均寿命": 0.0, "st_期待就学年数": 0.0, "st_平均就学年数": 0.0, "st_一人当たりGNI": 0.0, "st_HDI_rank": "0", "st_HDI_category": 0 }, "geometry": { "type": "Point", "coordinates": [ -56.251701499999989, 46.872735875000011 ] } },
{ "type": "Feature", "properties": { "OID": 238, "st_Name_jp": "マーシャル諸島", "st_HDI_value": 0.731, "st_平均寿命": 65.146, "st_期待就学年数": 16.38606071, "st_平均就学年数": 12.81836718, "st_一人当たりGNI": 6855.234566, "st_HDI_rank": "101", "st_HDI_category": 3 }, "geometry": { "type": "Point", "coordinates": [ 168.441486891304351, 9.111504978260887 ] } },
{ "type": "Feature", "properties": { "OID": 233, "st_Name_jp": "サモア", "st_HDI_value": 0.702, "st_平均寿命": 72.598, "st_期待就学年数": 12.4364, "st_平均就学年数": 11.36735585, "st_一人当たりGNI": 4970.232074, "st_HDI_rank": "112", "st_HDI_category": 3 }, "geometry": { "type": "Point", "coordinates": [ -172.039127375, -13.75441 ] } },
{ "type": "Feature", "properties": { "OID": 232, "st_Name_jp": "ウォリス・フツナ", "st_HDI_value": 0.0, "st_平均寿命": 0.0, "st_期待就学年数": 0.0, "st_平均就学年数": 0.0, "st_一人当たりGNI": 0.0, "st_HDI_rank": "0", "st_HDI_category": 0 }, "geometry": { "type": "Point", "coordinates": [ -177.126895875, -13.79673725 ] } },
{ "type": "Feature", "properties": { "OID": 235, "st_Name_jp": "キュラソー", "st_HDI_value": 0.0, "st_平均寿命": 0.0, "st_期待就学年数": 0.0, "st_平均就学年数": 0.0, "st_一人当たりGNI": 0.0, "st_HDI_rank": "0", "st_HDI_category": 0 }, "geometry": { "type": "Point", "coordinates": [ -68.277336076862198, 12.180982425227374 ] } },
{ "type": "Feature", "properties": { "OID": 234, "st_Name_jp": "グアドループ", "st_HDI_value": 0.0, "st_平均寿命": 0.0, "st_期待就学年数": 0.0, "st_平均就学年数": 0.0, "st_一人当たりGNI": 0.0, "st_HDI_rank": "0", "st_HDI_category": 0 }, "geometry": { "type": "Point", "coordinates": [ -61.668181, 16.595032812500015 ] } },
{ "type": "Feature", "properties": { "OID": 229, "st_Name_jp": "セントビンセント及びグレナディーン諸島", "st_HDI_value": 0.772, "st_平均寿命": 68.972, "st_期待就学年数": 16.2530213, "st_平均就学年数": 10.99625387, "st_一人当たりGNI": 14049.14799, "st_HDI_rank": "80", "st_HDI_category": 3 }, "geometry": { "type": "Point", "coordinates": [ -61.294897937499968, 12.880346375 ] } },
{ "type": "Feature", "properties": { "OID": 228, "st_Name_jp": "ツバル", "st_HDI_value": 0.653, "st_平均寿命": 64.854, "st_期待就学年数": 12.10158014, "st_平均就学年数": 10.64458626, "st_一人当たりGNI": 4754.453732, "st_HDI_rank": "131", "st_HDI_category": 2 }, "geometry": { "type": "Point", "coordinates": [ 177.149340851061254, -7.183236326351749 ] } },
{ "type": "Feature", "properties": { "OID": 231, "st_Name_jp": "アメリカ領ヴァージン諸島", "st_HDI_value": 0.0, "st_平均寿命": 0.0, "st_期待就学年数": 0.0, "st_平均就学年数": 0.0, "st_一人当たりGNI": 0.0, "st_HDI_rank": "0", "st_HDI_category": 0 }, "geometry": { "type": "Point", "coordinates": [ -64.787274666666661, 18.141086500000021 ] } },
{ "type": "Feature", "properties": { "OID": 230, "st_Name_jp": "イギリス領ヴァージン諸島", "st_HDI_value": 0.0, "st_平均寿命": 0.0, "st_期待就学年数": 0.0, "st_平均就学年数": 0.0, "st_一人当たりGNI": 0.0, "st_HDI_rank": "0", "st_HDI_category": 0 }, "geometry": { "type": "Point", "coordinates": [ -64.451072666666633, 18.53955825 ] } },
{ "type": "Feature", "properties": { "OID": 225, "st_Name_jp": "トケラウ", "st_HDI_value": 0.0, "st_平均寿命": 0.0, "st_期待就学年数": 0.0, "st_平均就学年数": 0.0, "st_一人当たりGNI": 0.0, "st_HDI_rank": "0", "st_HDI_category": 0 }, "geometry": { "type": "Point", "coordinates": [ -171.85225433333332, -9.047014 ] } },
{ "type": "Feature", "properties": { "OID": 224, "st_Name_jp": "セントルシア", "st_HDI_value": 0.725, "st_平均寿命": 71.294, "st_期待就学年数": 12.71032047, "st_平均就学年数": 8.576973425, "st_一人当たりGNI": 14778.3463, "st_HDI_rank": "109", "st_HDI_category": 3 }, "geometry": { "type": "Point", "coordinates": [ -60.9797955, 13.85208275 ] } },
{ "type": "Feature", "properties": { "OID": 227, "st_Name_jp": "サントメ・プリンシペ", "st_HDI_value": 0.613, "st_平均寿命": 68.794, "st_期待就学年数": 12.6637182, "st_平均就学年数": 5.915788918, "st_一人当たりGNI": 4054.106945, "st_HDI_rank": "143", "st_HDI_category": 2 }, "geometry": { "type": "Point", "coordinates": [ 6.972847, 0.88999975000005 ] } },
{ "type": "Feature", "properties": { "OID": 226, "st_Name_jp": "トンガ", "st_HDI_value": 0.739, "st_平均寿命": 71.27, "st_期待就学年数": 16.28749084, "st_平均就学年数": 10.88028609, "st_一人当たりGNI": 6360.178905, "st_HDI_rank": "95", "st_HDI_category": 3 }, "geometry": { "type": "Point", "coordinates": [ -174.581302330142165, -19.352765693039192 ] } },
{ "type": "Feature", "properties": { "OID": 221, "st_Name_jp": "セントクリストファー・ネイビス", "st_HDI_value": 0.838, "st_平均寿命": 72.027, "st_期待就学年数": 18.40703011, "st_平均就学年数": 10.8494008, "st_一人当たりGNI": 28441.68074, "st_HDI_rank": "51", "st_HDI_category": 4 }, "geometry": { "type": "Point", "coordinates": [ -62.652467749999936, 17.220310375000018 ] } },
{ "type": "Feature", "properties": { "OID": 220, "st_Name_jp": "レユニオン", "st_HDI_value": 0.0, "st_平均寿命": 0.0, "st_期待就学年数": 0.0, "st_平均就学年数": 0.0, "st_一人当たりGNI": 0.0, "st_HDI_rank": "0", "st_HDI_category": 0 }, "geometry": { "type": "Point", "coordinates": [ 55.57847025, -21.09944625 ] } },
{ "type": "Feature", "properties": { "OID": 223, "st_Name_jp": "シンガポール", "st_HDI_value": 0.949, "st_平均寿命": 84.133, "st_期待就学年数": 16.90273094, "st_平均就学年数": 11.92488003, "st_一人当たりGNI": 88761.14559, "st_HDI_rank": "10", "st_HDI_category": 4 }, "geometry": { "type": "Point", "coordinates": [ 103.83387025, 1.37789525 ] } },
{ "type": "Feature", "properties": { "OID": 222, "st_Name_jp": "セーシェル", "st_HDI_value": 0.802, "st_平均寿命": 71.738, "st_期待就学年数": 13.89179039, "st_平均就学年数": 11.19995, "st_一人当たりGNI": 28385.74806, "st_HDI_rank": "71", "st_HDI_category": 4 }, "geometry": { "type": "Point", "coordinates": [ 51.713954928571468, -7.019484964285715 ] } },
{ "type": "Feature", "properties": { "OID": 217, "st_Name_jp": "クリスマス島", "st_HDI_value": 0.0, "st_平均寿命": 0.0, "st_期待就学年数": 0.0, "st_平均就学年数": 0.0, "st_一人当たりGNI": 0.0, "st_HDI_rank": "0", "st_HDI_category": 0 }, "geometry": { "type": "Point", "coordinates": [ 105.69210075, -10.4608325 ] } },
{ "type": "Feature", "properties": { "OID": 216, "st_Name_jp": "イギリス領インド洋地域", "st_HDI_value": 0.0, "st_平均寿命": 0.0, "st_期待就学年数": 0.0, "st_平均就学年数": 0.0, "st_一人当たりGNI": 0.0, "st_HDI_rank": "0", "st_HDI_category": 0 }, "geometry": { "type": "Point", "coordinates": [ 71.804431222222263, -5.911280833333333 ] } },
{ "type": "Feature", "properties": { "OID": 219, "st_Name_jp": "ナウル", "st_HDI_value": 0.696, "st_平均寿命": 64.014, "st_期待就学年数": 12.56089218, "st_平均就学年数": 9.247975, "st_一人当たりGNI": 14938.55659, "st_HDI_rank": "117", "st_HDI_category": 2 }, "geometry": { "type": "Point", "coordinates": [ 166.936851499999989, -0.5260415 ] } },
{ "type": "Feature", "properties": { "OID": 218, "st_Name_jp": "合衆国領有小離島", "st_HDI_value": 0.0, "st_平均寿命": 0.0, "st_期待就学年数": 0.0, "st_平均就学年数": 0.0, "st_一人当たりGNI": 0.0, "st_HDI_rank": "0", "st_HDI_category": 0 }, "geometry": { "type": "Point", "coordinates": [ -124.39000275, 13.294018785714313 ] } },
{ "type": "Feature", "properties": { "OID": 213, "st_Name_jp": "ココス諸島", "st_HDI_value": 0.0, "st_平均寿命": 0.0, "st_期待就学年数": 0.0, "st_平均就学年数": 0.0, "st_一人当たりGNI": 0.0, "st_HDI_rank": "0", "st_HDI_category": 0 }, "geometry": { "type": "Point", "coordinates": [ 96.877105500000027, -12.180833375 ] } },
{ "type": "Feature", "properties": { "OID": 212, "st_Name_jp": "オーランド諸島", "st_HDI_value": 0.0, "st_平均寿命": 0.0, "st_期待就学年数": 0.0, "st_平均就学年数": 0.0, "st_一人当たりGNI": 0.0, "st_HDI_rank": "0", "st_HDI_category": 0 }, "geometry": { "type": "Point", "coordinates": [ 167.9600375, -29.0481265 ] } },
{ "type": "Feature", "properties": { "OID": 215, "st_Name_jp": "ハード島とマクドナルド諸島", "st_HDI_value": 0.0, "st_平均寿命": 0.0, "st_期待就学年数": 0.0, "st_平均就学年数": 0.0, "st_一人当たりGNI": 0.0, "st_HDI_rank": "0", "st_HDI_category": 0 }, "geometry": { "type": "Point", "coordinates": [ 73.5641595, -53.10800375 ] } }
]
}
